siteid,title,lng,lat,sum,违规人数,少,青,老,男,女,本地,外地
50010510000039,江北****会所）,106.569,29.5861,983,5,5,983,2,853,130,113,870
50010510000040,乌托****网吧）,106.489,29.6021,570,5,5,570,0,537,33,112,458
50010510000044,江北****风网吧,106.609,29.6091,264,7,6,264,1,258,6,7,257
50010510000048,江北****潮网吧,106.539,29.5873,809,30,30,809,11,759,50,150,659
50010510000050,江北****族网吧,106.469,29.5694,1830,65,65,1830,1,1686,144,284,1546
50010510000051,江北****会所）,106.53,29.5905,1081,71,71,1081,0,1028,53,168,913
50010510000052,江北****渝网吧,106.485,29.5893,385,13,13,385,11,347,38,122,263
50010510000054,江北****会所）,106.486,29.5867,659,5,5,659,12,458,201,196,463
50010510000056,江北****网吧）,106.536,29.579,533,58,58,533,0,495,38,67,466
50010510000058,江北****会所）,106.654,29.6263,1732,74,74,1732,4,1666,66,117,1615
50010510000060,江北****天网吧,106.566,29.5904,1318,14,14,1318,82,946,372,91,1227
50010510000061,江北****会所),106.543,29.5724,962,23,23,962,1,916,46,90,872
50010510000062,江北****萝网吧,106.496,29.5753,664,29,29,664,0,600,64,115,549
50010510000063,江北****会所）,106.533,29.5861,675,69,69,675,3,629,46,70,605
50010510000064,江北****堡网吧,106.537,29.5682,1185,5,5,1185,14,1060,125,137,1048
50010510000065,江北****顺网吧,106.768,29.6288,491,27,27,491,1,479,12,54,437
50010510000067,江北****盒网吧,106.53,29.5813,504,3,3,504,0,496,8,65,439
50010510000070,江北****会所）,106.56,29.5824,2447,204,204,2447,0,2246,201,276,2171
50010510000071,江北****网吧）,106.714,29.6193,801,85,85,801,3,672,129,61,740
50010510000072,江北****嘴网吧,106.769,29.63,531,1,1,531,0,507,24,25,506
50010510000073,江北****华网吧,106.526,29.5677,676,12,12,676,0,630,46,42,634
50010510000076,江北****会所),106.498,29.5747,1146,124,124,1146,2,987,159,163,983
50010510000080,江北****点网吧,106.769,29.63,584,1,1,584,1,557,27,42,542
50010510000081,江北****山网吧,106.563,29.5915,571,21,21,571,1,529,42,51,520
50010510000083,江北****辉网吧,106.714,29.6193,1326,166,166,1326,2,1230,96,120,1206
50010510000087,江北****居网吧,106.544,29.5778,648,32,32,648,0,598,50,127,521
50010510000092,江北****网吧）,106.714,29.6193,749,11,11,749,8,714,35,134,615
50010510000093,江北****湾网吧,106.535,29.5838,893,1,1,893,0,820,73,75,818
50010510000095,重庆****会所）,106.668,29.6138,2924,61,61,2924,0,2842,82,117,2807
50010510000100,江北****者网吧,106.47,29.5708,1163,74,74,1163,0,1156,7,26,1137
50010510000101,江北****谷网吧,106.58,29.618,971,17,17,971,0,926,45,24,947
50010510000105,江北****会所）,106.535,29.562,695,7,7,695,1,628,67,92,603
50010510000106,江北****线网吧,106.532,29.5774,826,19,19,826,3,772,54,116,710
50010510000108,江北****网吧）,106.693,29.5905,325,2,2,325,0,320,5,26,299
50010510000110,江北****爱网吧,106.687,29.5811,709,98,98,709,1,630,79,171,538
50010510000111,江北****网吧）,106.548,29.5788,921,18,18,921,2,775,146,258,663
50010510000112,江北****会所）,106.538,29.589,766,31,31,766,0,697,69,94,672
50010310000144,渝中****魔网吧,106.531,29.5554,671,2,0,671,26,644,27,84,587
50010510000002,江北****业网吧,106.562,29.5843,619,9,9,619,1,426,193,197,422
50010510000139,江北****静网吧,106.47,29.5706,1170,44,44,1170,14,1094,76,109,1061
50010510000140,江北****会所）,106.498,29.5744,1262,105,105,1262,5,1112,150,129,1133
50010310000247,渝中****嘉网吧,106.513,29.5454,1606,2,0,1606,1,1525,81,155,1451
50010310000002,渝中****端网吧,106.556,29.5604,1587,1,0,1587,0,1507,80,191,1396
50010310000011,渝中****艺网吧,106.558,29.556,1041,1,0,1041,34,986,55,54,987
50010310000025,渝中****寰宇),106.584,29.5634,2753,6,0,2753,4,2533,220,237,2516
50010510000113,江北****克网吧,106.583,29.6161,541,3,3,541,0,512,29,42,499
50010510000114,江北****会所）,106.538,29.5895,811,17,17,811,5,708,103,98,713
50010510000115,江北****会所）,106.541,29.5827,190,16,16,190,0,172,18,10,180
50010510000117,江北****家园),106.53,29.5877,1205,37,37,1205,1,1161,44,198,1007
50010510000120,江北****宁网吧,106.547,29.5893,945,3,3,945,0,901,44,135,810
50010510000121,江北****渔网吧,106.551,29.5794,731,4,4,731,1,685,46,161,570
50010510000125,江北****复网吧,106.799,29.6508,548,112,112,548,0,536,12,45,503
50010510000130,江北****会所）,106.497,29.574,705,9,9,705,1,610,95,133,572
50010510000131,江北****会所）,106.561,29.5864,1388,214,214,1388,1,1262,126,217,1171
50010510000132,江北****会所）,106.54,29.5778,894,23,23,894,1,826,68,86,808
50010510000133,江北****剑网吧,106.532,29.563,1118,4,4,1118,0,1037,81,115,1003
50010510000134,江北****会所）,106.542,29.5835,1625,183,183,1625,9,1504,121,129,1496
50010510000136,重庆****会所）,106.538,29.5781,2316,73,73,2316,18,2156,160,203,2113
50010510000137,江北****运网吧,106.656,29.5987,2419,33,33,2419,65,2143,276,305,2114
50010510000138,江北****验网吧,106.54,29.5709,162,1,1,162,0,136,26,25,137
50010310000029,渝中****洁网吧,106.553,29.5582,469,1,0,469,8,413,56,77,392
50010810000090,南岸****奇网吧,106.576,29.5331,1417,1,0,1417,0,1259,158,104,1313
50010810000099,南岸****顺网吧,106.667,29.5415,1797,3,1,1797,0,1604,193,209,1588
50010810000101,南岸****网网吧,106.564,29.5327,649,1,0,649,0,580,69,253,396
50011210000025,渝北****代网吧,106.629,29.7084,806,5,0,806,0,745,61,82,724
50010510000146,江北****会所）,106.49,29.5895,1022,10,10,1022,0,984,38,67,955
50010510000149,江北****会所）,106.541,29.5827,1203,41,41,1203,13,857,346,176,1027
50010510000151,江北****会所）,106.532,29.5774,545,1,1,545,5,490,55,81,464
50010510000152,江北****会所）,106.547,29.5825,1576,58,58,1576,1,1443,133,78,1498
50010310000030,渝中****人网吧,106.523,29.5433,1450,1,0,1450,1,1396,54,68,1382
50010310000041,渝中****明网吧,106.59,29.5608,1101,1,0,1101,1,1070,31,86,1015
50010310000102,渝中****络会所,106.556,29.5655,731,1,0,731,10,685,46,94,637
50010910000175,北碚****核对）,106.509,29.7888,306,1,0,306,0,288,18,41,265
50010510000004,江北****网吧）,106.482,29.5964,289,9,9,289,0,272,17,77,212
50010510000007,江北****冲网吧,106.539,29.5865,1230,7,7,1230,0,1040,190,106,1124
50010510000008,江北****江网吧,106.543,29.5727,1829,83,83,1829,8,1649,180,141,1688
50010510000009,江北****会所）,106.535,29.5907,1173,66,66,1173,0,1087,86,101,1072
50010510000010,江北****会所）,106.497,29.5752,888,207,207,888,13,814,74,201,687
50010510000014,江北****海网吧,106.568,29.58,1197,8,8,1197,0,1157,40,69,1128
50010510000017,江北****竹网吧,106.533,29.5832,1007,111,111,1007,0,969,38,97,910
50010510000020,江北****韬网吧,106.552,29.6626,714,5,5,714,2,704,10,92,622
50010510000023,江北****苑网吧,106.494,29.5856,446,11,11,446,3,395,51,79,367
50010510000025,江北****海网吧,106.489,29.593,1015,13,13,1015,3,975,40,183,832
50010510000026,江北****本网吧,106.564,29.5863,1294,123,123,1294,2,1225,69,282,1012
50010510000030,江北****眼网吧,106.545,29.5797,1615,6,6,1615,0,1546,69,73,1542
50010510000032,江北****度网吧,106.545,29.5794,1182,174,174,1182,1,1042,140,99,1083
50010510000034,江北****溪网吧,106.587,29.6271,325,2,2,325,0,309,16,28,297
50010510000035,江北****电网吧,106.474,29.5908,1322,34,34,1322,11,1157,165,238,1084
50010510000037,江北****吉网吧,106.543,29.5713,555,107,107,555,0,537,18,25,530
50010510000038,江北****捷网吧,106.653,29.6035,385,14,14,385,0,369,16,10,375
50010910000044,重庆****潮网吧,106.503,29.7348,118,1,0,118,0,116,2,28,90
50010810000056,南岸****栈网吧,106.587,29.5111,504,2,0,504,0,455,49,97,407
50010810000081,南岸****爱网吧,106.579,29.5118,261,1,0,261,0,248,13,54,207
50010710000076,九龙****玛网吧,106.526,29.5378,910,1,0,910,0,825,85,89,821
50010710000113,重庆****名网吧,106.511,29.5209,652,2,0,652,3,623,29,158,494
50010710000114,重庆****恒网吧,106.493,29.4995,458,1,0,458,0,434,24,102,356
50010710000134,九龙****动力),106.523,29.5181,446,1,0,446,0,395,51,174,272
50010810000156,南岸****网苑）,106.608,29.583,1218,6,0,1218,2,1124,94,252,966
50010810000167,南岸****约网吧,106.61,29.606,1039,1,0,1039,0,994,45,134,905
50010810000192,南岸****商务吧,106.569,29.5294,554,1,0,554,0,486,68,33,521
50010910000005,重庆****风网吧,106.448,29.8366,863,2,0,863,0,789,74,31,832
50010910000031,重庆****兆网吧,106.414,29.8078,502,1,0,502,0,474,28,105,397
50010710000034,重庆****晴网吧,106.512,29.5208,1190,1,0,1190,1,1118,72,264,926
50010710000259,重庆****九网吧,106.379,29.545,324,1,0,324,2,295,29,13,311
50010510000155,江北****络会所,106.512,29.5825,1475,1,0,1475,0,1393,82,76,1399
50010610001007,重庆****儿网吧,106.426,29.5769,482,2,0,482,0,436,46,163,319
50010710000274,亚联****寺网吧,106.452,29.4705,218,11,11,218,0,204,14,50,168
50010710000278,九龙****诺网吧,106.506,29.5227,842,1,0,842,0,795,47,102,740
50010710000042,九龙****慧星),106.509,29.5224,747,1,0,747,3,721,26,224,523
50015310000034,北部****视网吧,106.588,29.0582,928,2,0,928,0,853,75,31,897
50010610009037,重庆****力网吧,106.309,29.5582,1469,1,0,1469,32,1272,197,194,1275
50010610006001,重庆****奇网吧,106.436,29.5308,2017,1,0,2017,42,1861,156,140,1877
50010610008003,重庆****楼网吧,106.449,29.6056,51,1,0,51,0,46,5,21,30
50015310000026,重庆****渝网吧,106.585,29.6331,912,1,0,912,0,866,46,77,835
50011210000058,渝北****造网吧,106.852,29.8577,293,1,0,293,0,128,165,214,79
50011210000098,渝北****峰网吧,106.608,29.6906,1757,1,0,1757,1,1653,104,210,1547
50011310000052,巴南****浪网吧,106.526,29.3856,745,2,0,745,4,703,42,338,407
50011310000056,巴南****点网吧,106.524,29.3906,438,1,0,438,0,414,24,126,312
50011310000073,巴南****边网吧,106.545,29.4719,871,1,0,871,7,756,115,167,704
50011210000111,渝北****踪网吧,106.627,29.7072,417,1,0,417,1,369,48,59,358
50011210000113,渝北****山网吧,106.613,29.6964,486,3,0,486,0,462,24,45,441
50011210000147,渝北****莲网吧,106.601,29.6896,547,2,0,547,1,532,15,51,496
50011210000157,渝北****儿网吧,106.564,29.6077,2832,144,144,2832,4,2595,237,193,2639
50011210000162,渝北****瀚网吧,106.628,29.7105,348,1,0,348,0,284,64,116,232
50023310000058,忠县****驰网吧,108.045,30.2971,209,1,1,209,0,171,38,0,209
50024110000044,秀山****网吧）,108.918,28.4044,15,1,0,15,0,14,1,0,15
50010510000158,江北****虹网吧,106.49,29.5933,1131,49,47,1131,1,1058,73,126,1005
50023110000055,垫江****光网吧,107.294,30.0809,65,2,0,65,0,38,27,1,64
50023710000041,巫山****话网吧,109.653,31.3104,136,2,0,136,6,104,32,0,136
50023710000051,巫山****浪网吧,109.885,31.0779,369,1,0,369,0,171,198,0,369
50011310000042,巴南****游网吧,106.546,29.4719,546,1,0,546,0,538,8,232,314
50010110000004,万州****A城）,108.45,30.7708,141,3,3,141,0,114,27,0,141
50010110000005,万州****网吧）,108.372,30.8203,120,18,18,120,0,116,4,0,120
50010110000008,万州****云网吧,108.369,30.8293,81,10,10,81,0,68,13,0,81
50011510000077,长寿****鹰网吧,107.081,29.8371,718,2,0,718,0,563,155,328,390
50010210000079,重庆****缘网吧,107.41,29.7092,495,24,24,495,11,425,70,17,478
50010210000086,重庆****娱网吧,107.205,29.6659,244,1,1,244,0,200,44,8,236
50010210000087,重庆****政网吧,107.409,29.6954,640,18,18,640,0,579,61,27,613
50010210000088,重庆****大网吧,107.413,29.6978,509,1,1,509,0,382,127,8,501
50010210000090,重庆****卢网吧,107.39,29.7122,137,3,3,137,0,99,38,22,115
50010210000091,重庆****冬网吧,107.4,29.71,871,5,5,871,0,643,228,15,856
50010210000094,重庆****起网吧,107.41,29.7037,362,5,5,362,2,295,67,6,356
50010210000098,重庆****狐网吧,107.391,29.7116,798,10,10,798,0,634,164,3,795
50011010000003,重庆****苗网吧,106.932,28.9531,314,6,6,314,0,298,16,122,192
50011010000006,重庆****城网吧,106.936,28.9644,223,5,5,223,0,202,21,128,95
50011010000012,重庆****梅网吧,106.847,28.8696,74,1,1,74,0,56,18,33,41
50011010000020,重庆****兰网吧,106.931,28.9672,263,2,2,263,0,230,33,140,123
50011010000021,重庆****来网吧,106.924,28.9165,410,4,4,410,0,246,164,289,121
50011010000025,重庆****安网吧,106.939,28.9508,209,2,2,209,32,141,68,131,78
50011010000029,重庆****旭网吧,106.935,28.959,457,24,24,457,35,346,111,167,290
50023510000047,云阳****闲会所,108.708,30.946,265,1,1,265,0,252,13,2,263
50023610000002,奉节****线网吧,109.388,31.0321,332,8,8,332,29,163,169,0,332
50023610000003,奉节****哥网城,109.472,31.0258,481,16,16,481,30,322,159,11,470
50023610000006,奉节****来网吧,109.473,31.028,416,5,5,416,3,220,196,19,397
50023610000007,奉节****丫网吧,109.467,31.0259,444,2,0,444,34,317,127,9,435
50023610000011,奉节****俱乐部,109.474,31.0282,611,2,2,611,1,470,141,8,603
50023610000013,奉节****）网吧,109.476,31.0268,1608,1,1,1608,35,1211,397,8,1600
50023610000014,奉节****乐网吧,109.474,31.0282,636,1,1,636,10,499,137,28,608
50023610000018,奉节****儿网吧,109.48,31.027,344,5,5,344,12,299,45,0,344
50023610000019,奉节****林网吧,109.474,31.0288,653,11,11,653,8,556,97,3,650
50023610000021,奉节****洋网吧,109.473,31.0277,234,1,1,234,12,143,91,1,233
50023610000030,奉节****蓉网吧,109.477,31.0299,381,1,1,381,1,222,159,2,379
50023610000033,奉节****辉网吧,109.466,31.0254,395,2,1,395,0,297,98,9,386
50023610000035,奉节****骋网吧,109.47,31.0223,238,1,1,238,0,193,45,1,237
50023610000036,奉节****鹄网吧,109.466,31.0271,371,3,3,371,0,312,59,1,370
50023610000038,奉节****）网吧,109.209,31.131,25,2,2,25,1,19,6,0,25
50023610000041,奉节****点网吧,109.472,31.0229,361,1,1,361,1,298,63,2,359
50023610000044,奉节****鹏网吧,109.47,31.0228,487,1,1,487,4,412,75,15,472
50023610000047,奉节****球网城,109.471,31.026,347,22,22,347,1,283,64,13,334
50023610000048,奉节****帝网吧,109.6,31.064,174,3,3,174,2,121,53,0,174
50023610000049,奉节****）网吧,109.474,31.0288,701,1,1,701,6,465,236,15,686
50023610000056,奉节****坛网吧,109.188,30.8956,21,2,1,21,0,15,6,0,21
50023610000088,奉节****人网吧,109.47,31.0223,210,1,1,210,7,177,33,1,209
50023410000024,开县****林网吧,108.42,31.1726,166,1,0,166,0,155,11,1,165
50023410000051,开县****络会所,108.399,31.1699,41,1,0,41,0,37,4,3,38
50023510000001,云阳****汇网吧,108.704,30.935,166,1,1,166,1,154,12,7,159
50023510000002,云阳****通网吧,108.693,30.9432,281,6,6,281,0,247,34,6,275
50023510000004,云阳****卓网吧,108.717,30.9274,214,11,11,214,0,202,12,2,212
50023510000005,云阳****心网吧,108.711,30.9346,24,2,2,24,0,22,2,3,21
50023510000007,云阳****闲网吧,108.707,30.9359,168,13,13,168,0,139,29,15,153
50023510000010,云阳****青网吧,108.701,30.9382,362,14,14,362,15,228,134,13,349
50023510000012,云阳****闲会所,108.723,30.9271,317,15,15,317,2,189,128,1,316
50023510000013,云阳****网吧,108.709,30.936,159,1,1,159,0,143,16,2,157
50023510000014,云阳****藤网吧,108.693,30.9426,277,8,8,277,0,261,16,9,268
50023510000015,云阳****群网吧,108.697,30.9418,91,3,3,91,0,80,11,1,90
50023510000023,云阳****络会所,108.726,30.9332,266,1,1,266,0,243,23,3,263
50023510000027,云阳****亮网吧,108.706,30.9379,89,1,1,89,1,38,51,0,89
50023510000029,云阳****闲会所,108.71,30.9324,127,8,8,127,0,112,15,8,119
50023510000030,云阳****闲会所,108.693,30.944,137,5,5,137,0,134,3,32,105
50023510000033,云阳****雨网吧,108.697,30.9473,66,2,2,66,0,65,1,2,64
50023510000035,云阳****约网吧,108.72,30.9114,34,1,1,34,0,25,9,0,34
50023510000039,云阳****荣网吧,108.803,31.2278,153,2,2,153,0,82,71,0,153
50023510000042,云阳****君网吧,108.894,31.3393,23,1,0,23,0,8,15,0,23
50023510000044,云阳****众网吧,108.688,31.1015,95,19,19,95,0,93,2,0,95
50023510000046,云阳****头网吧,108.516,31.0395,52,3,3,52,0,49,3,0,52
50011110000005,重庆****格网吧,105.771,29.492,694,2,0,694,0,653,41,97,597
50011410000012,黔江****陵网吧,108.626,29.5765,142,4,0,142,0,88,54,0,142
50011410000038,黔江****客网吧,108.793,29.5291,363,2,0,363,0,283,80,8,355
50011510000011,长寿****雪网吧,107.112,29.9622,344,2,0,344,0,303,41,24,320
50010110000159,万州****侠网吧,108.385,30.8171,375,2,2,375,0,357,18,27,348
50010110000160,万州****兴网吧,108.37,30.8218,246,1,1,246,0,225,21,4,242
50010110000161,万州****潭网吧,108.413,30.7101,473,5,5,473,0,411,62,0,473
50010110000162,万州****全网吧,108.395,30.7617,286,13,13,286,0,233,53,2,284
50010110000163,万州****源网吧,108.383,30.7569,588,17,17,588,0,491,97,4,584
50010110000165,万州****国网吧,108.385,30.7588,214,34,34,214,1,204,10,3,211
50010110000166,万州****城网吧,108.384,30.8197,375,1,1,375,0,324,51,1,374
50010110000167,万州****胜网吧,108.379,30.7873,779,43,43,779,0,709,70,0,779
50010110000173,万州****灵网吧,108.417,30.7707,135,2,2,135,0,131,4,14,121
50010110000176,万州****塬网吧,106.464,29.4942,238,27,27,238,0,212,26,0,238
50010110000180,万州****悦网吧,108.395,30.7619,168,16,16,168,1,151,17,6,162
50010110000181,万州****韵网吧,108.372,30.8582,215,6,6,215,0,196,19,0,215
50010110000182,万州****熳网吧,108.418,30.7697,164,2,2,164,0,143,21,12,152
50010110000184,万州****城网吧,108.399,30.766,127,10,10,127,0,105,22,0,127
50010110000186,万州****网吧,108.383,30.7569,855,39,39,855,0,646,209,1,854
50010110000187,万州****作网吧,108.359,30.7151,149,10,10,149,12,148,1,0,149
50010110000189,万州****色网吧,108.379,30.8079,185,4,4,185,0,182,3,5,180
50010110000015,万州****月网吧,108.377,30.8225,584,2,2,584,0,541,43,8,576
50010110000016,万州****A城),108.45,30.7708,323,1,1,323,0,125,198,0,323
50010110000020,万州****安网吧,108.662,30.8065,178,8,8,178,20,18,160,0,178
50010110000028,万州****离网吧,108.379,30.8489,325,2,2,325,0,310,15,2,323
50010110000029,万州****站网吧,108.387,30.8083,386,6,6,386,0,240,146,1,385
50010110000001,万州****吉祥）,108.389,30.8158,238,4,4,238,1,217,21,12,226
50010110000030,万州****吉网吧,108.394,30.8292,189,3,3,189,2,166,23,0,189
50010110000031,万州****宇网吧,108.378,30.8501,114,1,1,114,0,109,5,0,114
50010110000033,万州****网吧),108.415,30.8393,414,1,1,414,1,394,20,5,409
50010110000041,万州****涵网吧,108.417,30.7707,233,2,2,233,0,193,40,3,230
50010110000044,万州****休闲）,108.402,30.7615,409,1,1,409,9,362,47,0,409
50010110000046,万州****林网吧,108.416,30.7696,405,7,7,405,0,359,46,10,395
50010110000048,万州****网吧）,108.413,30.7101,270,22,22,270,0,253,17,1,269
50010110000052,万州****源网吧,108.375,30.8204,587,36,36,587,3,492,95,6,581
50010110000053,万州****站网吧,108.623,30.8196,133,2,2,133,0,119,14,0,133
50010110000058,万州****归网吧,108.396,30.7817,360,1,1,360,3,283,77,1,359
50010110000068,万州****韵网吧,108.402,30.7615,226,4,4,226,0,182,44,3,223
50023510000018,云阳****人网吧,108.706,30.9344,80,5,5,80,0,78,2,17,63
50023010000002,丰都****络会所,107.742,29.8755,219,1,1,219,0,205,14,6,213
50023010000011,丰都****感网吧,107.739,29.8735,164,1,1,164,1,164,0,2,162
50024310000019,彭水****静网吧,108.168,29.2915,130,1,0,130,0,111,19,11,119
50010110000196,万州****士网吧,108.41,30.8908,490,36,36,490,0,439,51,0,490
50010110000197,万州****珈网吧,108.386,30.8111,515,14,14,515,0,436,79,7,508
50010110000198,万州****博网吧,108.378,30.8062,89,13,13,89,0,84,5,0,89
50010210000001,重庆****网网吧,107.406,29.7069,1192,134,134,1192,18,1019,173,54,1138
50010210000004,重庆****迅网吧,107.389,29.7179,242,13,13,242,0,198,44,9,233
50010210000011,重庆****源网吧,107.392,29.714,229,4,4,229,0,186,43,19,210
50010210000015,重庆****定网吧,107.406,29.7068,133,6,6,133,0,119,14,3,130
50010210000026,重庆****叶网吧,107.385,29.7095,350,2,2,350,0,311,39,2,348
50010210000036,重庆****狮网吧,107.406,29.7153,127,3,3,127,0,105,22,4,123
50010210000041,重庆****天网吧,107.408,29.7106,796,15,15,796,0,357,439,4,792
50010110000084,万州****意网吧,108.376,30.8496,413,1,1,413,0,382,31,25,388
50010110000091,万州****智网吧,108.375,30.8577,192,6,6,192,17,105,87,0,192
50010110000099,万州****鑫网吧,108.378,30.8502,432,6,6,432,0,325,107,151,281
50010110000103,万州****龙网吧,108.386,30.8165,276,4,4,276,4,180,96,0,276
50010110000105,万州****龙网吧,108.412,30.8379,290,6,6,290,0,271,19,1,289
50010110000107,万州****地网吧,108.377,30.8226,540,1,1,540,31,511,29,6,534
50010110000111,万州****莲网吧,108.418,30.7697,469,1,1,469,0,374,95,4,465
50010210000071,重庆****林网吧,107.393,29.714,600,9,8,600,17,438,162,1,599
50010210000073,重庆****趣网吧,107.405,29.7122,452,1,1,452,0,411,41,6,446
50023110000057,垫江****下网吧,107.35,30.3391,225,14,14,225,2,161,64,3,222
50011010000032,重庆****源网吧,106.932,28.9677,582,18,18,582,1,512,70,222,360
50011010000038,重庆****游网吧,106.939,28.9508,304,8,8,304,0,280,24,133,171
50010110000120,万州****里巴吧,108.379,30.8224,555,6,6,555,36,464,91,34,521
50010110000123,万州****蓝网城,108.386,30.8136,185,6,6,185,0,162,23,2,183
50010110000128,万州****心网吧,108.388,30.8087,404,1,1,404,0,268,136,1,403
50010110000137,万州****骄网吧,108.371,30.8219,323,4,4,323,4,295,28,9,314
50010110000139,万州****宏潮）,108.413,30.7101,260,4,4,260,0,211,49,0,260
50010110000142,万州****度网城,108.378,30.8476,259,4,4,259,0,233,26,8,251
50010110000144,万州****限网吧,108.39,30.8075,139,1,1,139,0,122,17,0,139
50010110000145,万州****网网吧,108.312,30.8301,248,1,1,248,0,123,125,0,248
50010110000152,万州****光网吧,108.383,30.8164,329,6,6,329,15,278,51,21,308
50010110000153,万州****民网吧,106.464,29.4942,722,17,17,722,0,607,115,468,254
50010110000154,万州****佳网吧,108.384,30.8176,637,1,1,637,1,573,64,24,613
50010110000158,万州****坊网吧,108.409,30.8907,384,25,25,384,0,345,39,0,384
50023110000037,垫江****星网吧,107.356,30.3376,260,4,4,260,1,189,71,0,260
50023110000040,垫江****络会所,107.354,30.3363,260,3,3,260,3,221,39,19,241
50023110000041,垫江****流网吧,107.354,30.3362,221,3,3,221,0,191,30,21,200
50023110000042,垫江****家网吧,107.449,30.4787,147,1,1,147,0,80,67,5,142
50023110000046,垫江****叶网吧,107.304,30.2692,133,14,14,133,0,66,67,3,130
50023110000048,垫江****点网吧,107.361,30.3382,492,6,6,492,18,339,153,1,491
50023110000049,垫江****极网屋,107.27,30.2113,537,5,5,537,24,346,191,41,496
50023110000053,垫江****扬网吧,107.355,30.3371,71,1,1,71,0,68,3,8,63
50023010000080,丰都****虹网吧,107.874,30.0289,25,1,0,25,0,20,5,0,25
50023110000004,垫江****位网吧,107.388,30.2686,138,10,10,138,0,114,24,11,127
50023110000006,垫江****越网吧,107.359,30.3417,281,1,1,281,0,167,114,3,278
50023110000007,垫江****悦网吧,107.271,30.2134,322,11,11,322,0,273,49,46,276
50023110000009,垫江****上网吧,107.348,30.3372,112,2,2,112,0,99,13,5,107
50023110000011,垫江****话网吧,107.356,30.3376,536,17,17,536,0,411,125,6,530
50023110000012,垫江****智网吧,107.271,30.209,120,1,1,120,0,97,23,19,101
50023110000019,垫江****尚网吧,107.356,30.3369,170,14,14,170,0,121,49,2,168
50011610000037,重庆****珑网吧,106.269,29.0354,358,1,0,358,0,309,49,150,208
50011610000052,重庆****浪网吧,106.274,29.081,312,1,0,312,37,244,68,183,129
50022210000071,綦江****网吧),106.728,28.7457,210,7,7,210,4,144,66,4,206
50022210000073,綦江****网吧）,106.656,29.0338,88,4,3,88,0,82,6,31,57
50022210000076,綦江****网吧）,106.671,29.0345,387,25,25,387,0,366,21,44,343
50022210000077,綦江****网吧),106.761,28.6602,133,16,16,133,0,92,41,74,59
50022210000079,重庆****网吧）,106.665,29.0238,642,10,10,642,3,616,26,226,416
50022410000015,铜梁****乐部）,106.054,29.8419,255,3,0,255,0,203,52,98,157
50022410000017,铜梁****会所）,106.083,29.8233,376,1,0,376,0,341,35,155,221
50010210000049,重庆****然网吧,107.396,29.7153,457,29,29,457,0,360,97,19,438
50010210000053,重庆****岛网吧,107.402,29.7172,453,9,9,453,2,430,23,9,444
50010210000057,重庆****河网吧,107.385,29.7071,230,15,15,230,0,204,26,21,209
50010210000059,重庆****爽网吧,107.405,29.7146,1510,17,17,1510,1,831,679,26,1484
50010210000061,重庆****多网吧,106.448,29.8366,354,9,9,354,1,267,87,6,348
50010210000062,重庆****舟网吧,107.403,29.7107,1899,12,12,1899,4,1685,214,18,1881
50010210000065,重庆****点网吧,107.387,29.7095,489,4,1,489,0,433,56,18,471
50010210000067,重庆****悦网吧,107.408,29.7068,1206,22,22,1206,1,939,267,40,1166
50010210000068,重庆****朋网吧,107.408,29.7073,122,3,3,122,0,103,19,7,115
50023010000059,丰都****鸟网吧,107.736,29.872,108,10,10,108,0,103,5,0,108
50023010000060,丰都****龙网吧,107.741,29.8723,73,2,0,73,0,69,4,8,65
50023010000067,丰都****痕网吧,107.743,29.875,599,8,8,599,2,537,62,40,559
50011610000014,重庆****会所),106.273,29.2843,265,1,0,265,20,232,33,83,182
50022210000030,重庆****网吧）,106.66,29.0406,497,33,33,497,0,452,45,109,388
50022210000039,綦江****网吧）,106.665,29.0323,754,31,31,754,4,682,72,196,558
50022210000040,綦江****俱乐部,106.663,29.0357,909,9,9,909,14,659,250,450,459
50022210000045,綦江****网吧）,106.673,28.9988,56,3,3,56,1,50,6,24,32
50022210000051,重庆****网吧）,106.657,29.0336,239,69,69,239,0,233,6,63,176
50022210000053,綦江****网吧),106.725,28.7489,405,17,17,405,0,373,32,43,362
50022210000057,綦江****网吧）,106.666,28.7706,240,14,14,240,0,216,24,28,212
50022210000065,(加****欣网吧,106.761,28.6602,970,17,17,970,28,814,156,287,683
50023010000017,丰都****昕网吧,107.707,29.8784,110,1,1,110,0,96,14,0,110
50023010000029,丰都****启点）,107.748,29.8789,532,2,2,532,0,515,17,32,500
50023010000031,丰都****雨网吧,107.729,29.8691,59,2,2,59,1,45,14,3,56
50023010000032,丰都****灵网吧,107.736,29.872,184,4,4,184,0,159,25,1,183
50023010000040,丰都****停业）,107.746,29.8775,40,2,2,40,1,37,3,1,39
50024310000033,彭水****落网吧,108.271,29.1823,2,1,0,2,0,2,0,0,2
50022210000010,綦江****网吧）,106.761,28.6602,89,3,1,89,0,49,40,50,39
50022210000011,綦江****网吧),106.683,28.6137,365,59,58,365,16,320,45,112,253
50022210000013,綦江****网吧),106.663,29.0372,568,6,6,568,0,487,81,137,431
50022210000016,綦江****网吧）,106.654,29.0333,383,17,17,383,0,364,19,128,255
50022210000020,綦江****网吧）,106.713,28.9492,191,2,1,191,0,153,38,66,125
50022210000021,綦江****会所）,106.679,28.8761,18,1,1,18,0,16,2,4,14
50023010000047,丰都****会所）,107.73,29.8688,152,1,0,152,0,147,5,1,151
50023010000052,丰都****会所）,107.738,29.8741,160,1,1,160,0,151,9,3,157
50022210000085,重庆****网吧）,106.661,29.042,106,1,1,106,0,98,8,31,75
50022210000087,重庆****代网吧,106.663,29.0373,513,25,25,513,8,441,72,116,397
50022210000090,綦江****网吧）,106.683,28.6137,63,3,3,63,0,56,7,12,51
50023110000025,垫江****源网吧,107.467,30.2976,30,5,5,30,0,23,7,0,30
50023110000026,垫江****纪网吧,107.345,30.3262,189,1,1,189,0,177,12,29,160
50023110000029,垫江****源网吧,107.434,30.0988,344,1,1,344,1,216,128,13,331
50023110000031,垫江****蓝网吧,107.356,30.3368,22,1,1,22,0,18,4,0,22
50011610000073,重庆****力网吧,106.409,29.1029,57,2,0,57,6,46,11,30,27
50022310000018,潼南****乐网吧,106.38,29.6021,62,1,0,62,0,52,10,48,14
50022310000019,潼南****络会所,105.824,30.1837,3,1,0,3,0,1,2,2,1
50023210000002,武隆****人网吧,107.772,29.3346,699,1,1,699,34,458,241,17,682
50023110000032,垫江****林网吧,107.362,30.3411,349,10,10,349,0,268,81,0,349
50023110000033,垫江****典网吧,107.354,30.3362,148,9,9,148,0,144,4,16,132
50023110000035,垫江****语网吧,107.356,30.3369,255,12,12,255,0,225,30,9,246
50023110000036,垫江****网网吧,107.336,30.0205,25,1,0,25,0,22,3,0,25
50011710000038,重庆****奔网吧,106.274,29.9862,714,36,36,714,1,668,46,143,571
50011710000039,重庆****限网吧,106.318,30.1187,1852,19,19,1852,12,1777,75,59,1793
50011710000041,重庆****迪网吧,106.081,30.3372,107,4,1,107,4,84,23,77,30
50011710000042,重庆****梦网吧,106.326,30.1874,255,11,11,255,0,240,15,196,59
50011710000043,重庆****聚网吧,106.275,29.9949,382,3,3,382,0,306,76,246,136
50011810000096,重庆****湖网吧,105.887,29.2505,83,1,0,83,0,32,51,40,43
50011710000050,重庆****龙网吧,106.328,30.1943,157,1,1,157,1,153,4,57,100
50022510000002,大足****龙网吧,105.633,29.6437,119,1,0,119,29,82,37,82,37
50011710000053,重庆****月网吧,106.298,29.9779,323,9,9,323,0,307,16,103,220
50011710000058,重庆****志网吧,106.258,30.0027,1077,14,14,1077,51,868,209,270,807
50010710001056,重庆****方网吧,106.534,29.5725,1058,1,0,1058,3,1001,57,117,941
50010710001048,九龙****会所）,106.464,29.5219,610,3,0,610,0,580,30,98,512
50011710000085,重庆****升网吧,106.326,30.1882,51,2,2,51,0,48,3,8,43
50010710001029,九龙****纪网吧,106.488,29.53,1019,1,0,1019,0,833,186,35,984
50010710001025,九龙****蛛网吧,106.482,29.5365,1218,1,0,1218,22,1160,58,177,1041
50011710000092,重庆****谷网吧,106.248,30.0075,274,2,2,274,0,132,142,94,180
50011710000093,重庆****溪网吧,106.328,30.1907,766,2,2,766,0,611,155,73,693
50011710000094,重庆****语网吧,106.234,30.098,134,18,18,134,0,125,9,18,116
50011710000095,合川****溪网吧,106.269,29.9939,399,5,5,399,0,369,30,113,286
50011710000098,重庆****约网吧,106.281,29.9808,53,1,0,53,0,48,5,33,20
50011710000100,重庆****林网吧,106.06,30.1047,8,2,0,8,0,4,4,7,1
50011710000107,重庆****人网吧,106.598,30.0839,81,6,5,81,0,69,12,19,62
50023110000005,垫江****约网吧,107.362,30.3276,320,2,2,320,0,313,7,25,295
50011710000063,重庆****网吧）,106.263,30.0005,975,85,85,975,19,792,183,244,731
50011710000064,重庆****联网吧,106.477,29.9052,2847,197,197,2847,1,2837,10,70,2777
50011710000067,重庆****钐网吧,106.598,30.0843,115,1,1,115,0,69,46,107,8
50010710001088,九龙****乐部）,106.491,29.534,2977,1,0,2977,0,2687,290,176,2801
50010710001083,九龙****海网吧,106.489,29.5352,896,1,0,896,5,880,16,150,746
50011710000069,重庆****田网吧,106.275,30.0073,247,1,1,247,0,218,29,93,154
50011710000070,重庆****城网吧,106.551,29.5591,571,7,7,571,0,479,92,164,407
50011710000023,重庆****兴网吧,106.335,30.0866,225,3,3,225,0,186,39,91,134
50011710000026,重庆****趣网吧,106.412,29.9789,947,1,0,947,0,854,93,54,893
50011710000027,重庆****宇网吧,106.282,29.983,518,10,10,518,1,410,108,154,364
50011710000030,重庆****语网吧,106.276,29.9951,198,7,7,198,6,153,45,61,137
50010510000084,江北****风网吧,106.714,29.6193,416,24,24,416,0,389,27,64,352
50010310000176,渝中****速网吧,106.578,29.5551,607,1,0,607,0,573,34,138,469
50010510000135,江北****会所）,106.533,29.5719,403,3,3,403,10,370,33,33,370
50010310000103,渝中****绣网吧,106.518,29.5497,1211,6,0,1211,0,1172,39,81,1130
50010510000005,江北****飞网吧,106.532,29.5896,1240,242,242,1240,1,1168,72,134,1106
50010510000012,江北****会所）,106.492,29.5763,879,30,30,879,1,789,90,147,732
50023610000009,奉节****心网吧,109.467,31.0259,349,4,4,349,3,258,91,4,345
50011710000118,重庆****夕网吧,106.233,30.0971,114,4,4,114,0,103,11,30,84
50011710000122,重庆****味屋）,106.27,30.0039,853,1,1,853,0,779,74,132,721
50011710000124,重庆****怡网吧,106.412,29.9789,680,7,7,680,0,594,86,14,666
50011710000131,重庆****海网吧,106.471,29.8849,703,37,37,703,1,674,29,26,677
50011710000134,重庆****达网吧,106.27,29.9813,379,16,16,379,0,321,58,103,276
50011710000136,重庆****界网吧,106.258,30.0021,1095,15,15,1095,0,1009,86,101,994
50022610000032,荣昌****达网吧,105.535,29.3764,849,4,0,849,0,568,281,168,681
50022610000046,荣昌****宇网吧,105.478,29.3615,523,1,0,523,0,286,237,273,250
50022610000051,荣昌****文网吧,105.58,29.3238,223,2,0,223,0,149,74,112,111
50011710000154,合川****帝网吧,106.27,29.9818,326,20,20,326,0,264,62,100,226
50011710000163,重庆****鑫网吧,106.412,29.9789,1378,4,4,1378,0,1302,76,26,1352
50011810000015,重庆****针网吧,105.93,29.3705,389,1,0,389,0,322,67,49,340
50022610000071,荣昌****络会所,105.592,29.4126,462,2,0,462,0,352,110,191,271
50011610000105,重庆****园网吧,106.276,29.3695,115,1,0,115,0,85,30,48,67
50011610000110,重庆****音网吧,106.312,29.4072,1375,2,0,1375,0,1310,65,106,1269
50022710000001,璧山****山网城,106.561,29.5661,158,1,0,158,7,148,10,35,123
50023210000031,武隆****河网吧,107.617,29.3996,54,1,0,54,15,53,1,1,53
50011810000033,永川****天网吧,105.944,29.3614,514,1,0,514,0,421,93,72,442
50023510000045,云阳****幻网吧,108.803,31.2278,24,3,3,24,0,21,3,0,24
50011010000014,重庆****力网吧,106.933,28.9614,285,14,14,285,0,244,41,115,170
50011710000003,重庆****路网吧,108.413,30.7101,343,2,2,343,1,299,44,158,185
50011710000004,重庆****兴网吧,106.248,30.0053,1886,7,7,1886,0,1734,152,31,1855
50011710000006,重庆****流网吧,106.278,30.0121,506,1,1,506,2,455,51,105,401
50011710000011,重庆****心网吧,106.598,30.0843,120,17,17,120,0,112,8,71,49
50011710000016,重庆****悠网吧,106.377,30.2465,61,4,0,61,0,56,5,3,58
50011710000018,重庆****升网吧,106.327,30.188,308,32,32,308,0,263,45,40,268
50011710000022,重庆****锋网吧,106.261,29.9998,450,24,24,450,0,414,36,23,427
50010110000070,万州****风网吧,106.308,29.6085,77,13,13,77,0,64,13,0,77
50010110000077,万州****风网吧,108.393,30.827,345,3,3,345,1,314,31,7,338
50010110000150,万州****月网吧,108.394,30.8267,314,5,5,314,0,285,29,5,309
50010110000156,万州****玮网吧,108.408,30.8906,305,37,37,305,0,271,34,0,305
50011610000026,重庆****缘网吧,106.262,29.2941,148,1,0,148,0,132,16,51,97
50022410000018,铜梁****人网吧,106.064,29.8419,267,1,0,267,0,241,26,156,111
50023010000071,丰都****顿中）,107.728,29.8691,151,3,3,151,10,136,15,2,149
50022210000060,綦江****在线）,106.665,29.0371,808,58,58,808,0,717,91,178,630
50022210000088,綦江****网吧),106.66,29.0275,92,14,14,92,0,90,2,49,43
