SITEID,TITLE,lng,lat
50010510000041,江北****启网吧,106.535,29.5814
50010510000042,江北****儿网吧,106.493,29.5932
50010510000043,江北****会所）,106.551,29.5872
50010510000045,江北****验吧),106.581,29.6169
50010510000046,江北****闲网吧,106.538,29.5771
50010510000049,江北****会所）,106.496,29.5839
50010510000053,江北****奇网吧,106.714,29.6193
50010510000055,江北****络会所,106.654,29.6266
50010510000057,江北****垣网吧,106.503,29.5741
50010510000059,江北****风网吧,106.714,29.6193
50010510000066,江北****会所）,106.539,29.5873
50010510000068,江北****会所）,106.548,29.5771
50010510000069,江北****会所),106.539,29.5804
50010510000074,江北****网络）,106.537,29.5787
50010510000075,江北****会所）,106.545,29.5807
50010510000077,江北****竹网吧,106.758,29.643
50010510000078,江北****会所）,106.538,29.5784
50010510000079,江北****扬网吧,106.491,29.5891
50010510000082,江北****场网吧,106.539,29.5752
50010510000085,江北****会所）,106.487,29.5742
50010510000086,江北****圣网吧,106.564,29.5861
50010510000088,江北****帕网吧,106.542,29.589
50010510000089,江北****城网吧,106.542,29.584
50010510000090,江北****络会所,106.559,29.5824
50010510000091,江北****人网吧,106.49,29.5762
50010510000094,江北****会所）,106.534,29.5649
50010510000096,江北****兰网吧,106.543,29.5753
50010510000097,江北****林网吧,106.495,29.5728
50010510000098,江北****雅网吧,106.534,29.5906
50010510000099,江北****辉网吧,106.714,29.6193
50010510000102,江北****光网吧,106.666,29.6122
50010510000103,江北****会所）,106.498,29.5727
50010510000104,江北****禧网吧,106.533,29.5788
50010510000107,江北****涛网吧,106.576,29.6056
50010510000109,江北****益网吧,106.693,29.5905
50010310000136,渝中****爽网吧,106.559,29.5597
50010310000139,渝中****园网吧,106.565,29.5691
50010310000140,渝中****子网吧,106.556,29.5564
50010310000141,渝中****玲网吧,106.524,29.5436
50010310000142,渝中****天网吧,106.518,29.5362
50010310000145,渝中****网吧,106.559,29.5672
50010310000146,渝中****使网吧,106.542,29.554
50010310000147,渝中****阵网吧,106.586,29.5609
50010310000149,渝中****禧网吧,106.585,29.5623
50010310000150,渝中****天网城,106.526,29.5465
50010310000151,渝中****禾网吧,106.567,29.5633
50010310000152,渝中****光网吧,106.583,29.5559
50010310000157,渝中****秋网吧,106.556,29.5556
50010310000162,渝中****源天地,106.575,29.5628
50010310000163,渝中****感网吧,106.518,29.5362
50010310000165,渝中****境网吧,106.591,29.5652
50010310000167,渝中****网吧）,106.556,29.5587
50010310000172,渝中****黑网吧,106.57,29.5621
50010310000173,渝中****辉网吧,106.58,29.563
50010310000174,渝中****情网吧,106.522,29.5419
50010310000175,渝中****圣网吧,106.573,29.5606
50010310000179,渝中****禾网吧,106.568,29.561
50010310000180,渝中****土网吧,106.56,29.5693
50010310000181,渝中****网吧),106.576,29.5623
50010310000225,渝中****仲网吧,106.574,29.5634
50010310000226,渝中****土网吧,106.585,29.5595
50010310000228,渝中****事通）,106.567,29.5619
50010410000040,大渡****络会所,106.497,29.4954
50010410000041,大渡****昊网吧,106.485,29.4805
50010410000042,大渡****木网吧,106.489,29.4754
50010410000043,大渡****力网吧,106.493,29.4882
50010410000044,大渡****来网吧,106.493,29.4854
50010410000045,大渡****（络）,106.496,29.4954
50010410000046,大渡****击网吧,106.478,29.4162
50010410000047,大渡****腾网吧,106.489,29.4814
50010410000048,大渡****特网吧,106.502,29.4963
50010410000049,大渡****尔网吧,106.503,29.4954
50010410000050,大渡****意网吧,106.485,29.4608
50010410000051,大渡****线网吧,106.486,29.48
50010410000052,大渡****巢网吧,106.486,29.48
50010410000053,大渡****络会所,106.49,29.4848
50010410000055,大渡****下网吧,106.492,29.4953
50010410000056,大渡****蹬网吧,106.439,29.4091
50010410000057,大渡****林网吧,106.483,29.4853
50010510000001,江北****凡网吧,106.538,29.5759
50010510000003,江北****飞网吧,106.493,29.5849
50010310000184,渝中****国网吧,106.552,29.565
50010310000185,渝中****恋网吧,106.524,29.5449
50010310000186,渝中****岸网吧,106.594,29.5695
50010310000187,渝中****浩网吧,106.549,29.5612
50010310000188,渝中****浪网吧,106.538,29.544
50010310000189,渝中****上网吧,106.558,29.557
50010310000190,渝中****网吧),106.577,29.5608
50010310000192,渝中****点网吧,106.532,29.5482
50010310000193,渝中****琦网吧,106.544,29.5546
50010310000195,渝中****间网吧,106.565,29.5693
50010310000196,渝中****牛网吧,106.581,29.5565
50010310000198,（渝****网吧),106.576,29.5603
50010310000199,渝中****村网吧,106.548,29.5586
50010310000200,渝中****5网吧,106.522,29.544
50010310000201,渝中****冻网吧,106.591,29.5617
50010310000202,渝中****网吧）,106.558,29.5677
50010310000206,渝中****团网吧,106.549,29.5612
50010310000207,渝中****网吧),106.552,29.5648
50010310000213,渝中****利网吧,106.568,29.5607
50010310000214,渝中****佳网吧,106.582,29.5588
50010310000215,渝中****琦网吧,106.576,29.5632
50010310000217,渝中****园网吧,106.538,29.544
50010310000218,渝中****点网吧,106.556,29.5659
50010310000220,重庆****江门店,106.578,29.5669
50010510000142,江北****风网城,106.491,29.5879
50010510000143,江北****彩网吧,106.491,29.5718
50010510000145,江北****会所）,106.714,29.6193
50010310000235,渝中****网吧）,106.582,29.5601
50010310000237,渝中****盟网吧,106.585,29.5642
50010310000239,渝中****灿网吧,106.561,29.5661
50010310000241,渝中****田网吧,106.554,29.565
50010310000245,渝中****才网吧,106.57,29.5626
50010310000246,渝中****露网吧,106.523,29.5474
50010310000248,渝中****水网吧,106.524,29.5444
50010310000249,渝中****华网吧,106.569,29.5647
50010310000272,渝中****华网吧,106.59,29.5692
50010310000277,渝中****俱乐部,106.524,29.5449
50010410000001,大渡****腾网吧,106.488,29.4785
50010410000002,大渡****娱会所,106.495,29.4952
50010410000003,大渡****纪网吧,106.489,29.4814
50010410000004,大渡****里网吧,106.443,29.4925
50010410000005,大渡****怡网吧,106.491,29.4818
50010410000006,大渡****点网吧,106.504,29.4976
50010410000007,大渡****东网吧,106.489,29.4436
50010410000008,大渡****咣网吧,106.49,29.4951
50010410000009,大渡****约网吧,106.492,29.4837
50010410000010,大渡****向网吧,106.479,29.4614
50010410000011,大渡****乐网吧,106.497,29.4366
50010410000012,大渡****安网吧,106.514,29.4246
50010410000013,大渡****雨网吧,106.492,29.4838
50010410000014,大渡****峰网吧,106.501,29.4958
50010410000015,大渡****尔网吧,106.486,29.4776
50010410000016,大渡****城网吧,106.494,29.4363
50010410000017,大渡****凡网吧,106.491,29.4957
50010410000018,大渡****会所),106.488,29.4911
50010410000019,大渡****捷网吧,106.509,29.4369
50010410000020,大渡****闲网吧,106.494,29.4871
50010410000021,大渡****蜘网吧,106.47,29.466
50010410000022,大渡****正网吧,106.514,29.4246
50010410000023,大渡****深网吧,106.489,29.4814
50010410000024,大渡****会所),106.495,29.4889
50010410000025,大渡****枫网吧,106.49,29.49
50010410000026,大渡****仁网吧,106.489,29.4814
50010410000027,大渡****来网吧,106.492,29.4763
50010410000028,大渡****德网吧,106.474,29.4461
50010410000029,大渡****纪网吧,106.492,29.4953
50010410000030,大渡****利网吧,106.478,29.4163
50010410000031,大渡****琴网吧,106.481,29.4849
50010410000032,大渡****鑫网吧,106.488,29.4831
50010410000034,大渡****牛网吧,106.473,29.4239
50010410000035,大渡****我网吧,106.485,29.4608
50010410000036,大渡****莹波）,106.488,29.4777
50010410000037,大渡****联网吧,106.47,29.466
50010410000038,大渡****聚网吧,106.485,29.465
50010410000039,大渡****堰网吧,106.501,29.4947
50010310000001,渝中****渝网吧,106.576,29.5633
50010310000003,渝中****梦网吧,106.523,29.537
50010310000004,渝中****限公司,106.556,29.5602
50010310000005,渝中****半网吧,106.58,29.5666
50010310000006,渝中****西网吧,106.565,29.5632
50010310000007,渝中****比网吧,106.58,29.5606
50010310000008,渝中****村网吧,106.517,29.5379
50010310000009,渝中****松网吧,106.579,29.5551
50010310000010,渝中****鸟网吧,106.581,29.5587
50010310000012,渝中****梦网吧,106.567,29.5619
50010310000013,渝中****网吧),106.586,29.5623
50010310000014,渝中****妹网吧,106.553,29.5662
50010310000015,渝中****玛网吧,106.569,29.5627
50010310000017,渝中****灏网吧,106.559,29.5572
50010310000018,渝中****燕网吧,106.592,29.566
50010310000020,渝中****星网吧,106.551,29.5592
50010310000021,渝中****雪网吧,106.568,29.5616
50010310000022,渝中****吉网吧,106.547,29.5552
50010310000023,渝中****点网吧,106.555,29.5557
50010310000024,渝中****网吧),106.556,29.5556
50010310000027,渝中****心网吧,106.56,29.5609
50010510000116,江北****强网吧,106.534,29.5874
50010510000118,江北****鑫网吧,106.548,29.5824
50010510000119,江北****会所）,106.535,29.5814
50010510000123,江北****会所）,106.535,29.5628
50010510000126,江北****豪网吧,106.536,29.5833
50010510000127,江北****会所）,106.768,29.6288
50010510000128,江北****创网吧,106.564,29.5861
50010510000129,江北****乐部）,106.546,29.584
50010310000028,渝中****路网吧,106.551,29.5618
50010810000082,南岸****奇网吧,106.583,29.5393
50010810000083,南岸****带网吧,106.569,29.5345
50010810000084,南岸****费点）,106.61,29.541
50010810000085,南岸****捷网吧,106.557,29.5262
50010810000086,南岸****河网吧,106.565,29.5308
50010810000087,南岸****虫网吧,106.564,29.5292
50010810000088,南岸****秀网吧,106.576,29.5255
50010810000089,南岸****飞网吧,106.602,29.5574
50010810000091,南岸****网吧,106.582,29.5276
50010810000092,南岸****舰网吧,106.564,29.5348
50010810000093,南岸****灵网吧,106.559,29.5282
50010810000095,南岸****克网吧,106.557,29.5263
50010810000096,南岸****雅网吧,106.567,29.5297
50010810000100,南岸****达网吧,106.572,29.5346
50010810000102,南岸****盈网吧,106.581,29.5198
50010810000103,南岸****仕网吧,106.569,29.5278
50010810000104,南岸****莎网吧,106.667,29.5415
50010810000105,南岸****恋网吧,106.608,29.5104
50010810000106,南岸****贝网吧,106.687,29.5375
50010810000107,南岸****行网吧,106.608,29.5822
50010810000108,南岸****花网吧,106.551,29.5187
50010810000109,南岸****太网吧,106.566,29.5415
50010810000110,南岸****斯网吧,106.578,29.5399
50010810000111,南岸****新网吧,106.579,29.5329
50010810000112,南岸****益网吧,106.58,29.4959
50010810000113,南岸****人网吧,106.608,29.5059
50010810000114,南岸****尔网吧,106.667,29.5415
50010810000117,南岸****网吧）,106.607,29.5775
50010810000118,南岸****概念),106.571,29.5334
50010810000119,南岸****影网吧,106.581,29.518
50010810000120,南岸****悦网吧,106.582,29.5385
50010810000013,南岸****英网吧,106.577,29.4887
50010810000014,南岸****洋网吧,106.666,29.5127
50010810000015,南岸****佳网吧,106.598,29.5875
50010810000016,南岸****康网吧,106.578,29.5313
50010810000017,南岸****通网吧,106.671,29.5123
50010810000018,南岸****方网吧,106.601,29.5549
50010810000020,南岸****日网吧,106.572,29.4988
50010810000022,南岸****店网吧,106.57,29.5305
50010810000023,南岸****佳网吧,106.595,29.5491
50010810000025,南岸****枫网吧,106.581,29.5198
50010810000026,南岸****车网吧,106.607,29.5753
50010810000027,南岸****友网吧,106.575,29.5309
50010810000028,南岸****网苑),106.601,29.558
50010810000030,南岸****旋网吧,106.612,29.546
50010810000031,南岸****网吧）,106.577,29.5323
50010810000032,南岸****赢网吧,106.569,29.5345
50010810000033,南岸****潮网吧,106.673,29.5105
50010810000034,南岸****园网吧,106.649,29.4926
50010810000035,南岸****星网吧,106.585,29.5186
50010810000036,南岸****豹网吧,106.567,29.5327
50010810000037,南岸****池网吧,106.597,29.5896
50010810000038,南岸****龙网吧,106.584,29.5189
50010810000039,南岸****龙网吧,106.601,29.5539
50010910002007,一往****深网吧,106.428,29.8195
50010910002009,文静****经营）,106.449,29.8317
50011210000001,渝北****源网吧,106.635,29.7222
50011210000002,渝北****城网吧,106.646,29.7474
50011210000003,渝北****号网吧,106.518,29.5881
50011210000004,渝北****度网吧,106.642,29.7437
50011210000006,渝北****缘网吧,106.633,29.7466
50011210000007,渝北****人网吧,106.503,29.6053
50011210000008,渝北****红网吧,106.509,29.589
50011210000009,渝北****通网吧,106.527,29.5977
50011210000010,渝北****星网吧,106.644,29.7455
50011210000011,渝北****主网吧,106.536,29.594
50011210000012,渝北****罗网吧,106.511,29.5818
50011210000013,渝北****天网吧,106.642,29.7437
50011210000014,渝北****尚网吧,106.63,29.7144
50011210000015,渝北****希网吧,106.613,29.6822
50011210000016,渝北****喜网吧,106.527,29.596
50011210000017,渝北****贵网吧,106.629,29.7104
50011210000018,渝北****斯网吧,106.645,29.747
50011210000019,渝北****湖网吧,106.633,29.7083
50011210000020,渝北****友网吧,106.529,29.5935
50011210000021,渝北****日网吧,106.524,29.5913
50011210000022,渝北****号网吧,106.516,29.5847
50011210000023,渝北****门网吧,106.612,29.708
50011210000024,渝北****谊网吧,106.605,29.6879
50011210000026,渝北****乐网吧,106.627,29.7067
50011210000027,渝北****蓝网吧,106.64,29.7409
50011210000028,渝北****柒网吧,106.527,29.5924
50011210000029,渝北****光网吧,106.509,29.5952
50011210000030,渝北****山网吧,106.617,29.7
50011210000031,渝北****后网吧,106.553,29.5888
50011210000032,渝北****晶网吧,106.523,29.6048
50011210000034,渝北****鑫网吧,106.622,29.703
50011210000036,渝北****合网吧,106.613,29.6822
50011210000037,渝北****壁网吧,106.65,29.7459
50011210000038,渝北****飞网吧,106.523,29.6048
50010510000147,江北****会所）,106.668,29.6138
50010510000148,江北****寻网吧,106.54,29.5847
50010510000153,江北****络会所,106.549,29.583
50010510000154,江北****博网吧,106.539,29.5882
50010310000031,渝中****费点),106.547,29.5552
50010310000034,渝中****你网吧,106.586,29.5666
50010310000035,渝中****鸟网吧,106.554,29.565
50010310000036,渝中****年网吧,106.574,29.5611
50010310000037,渝中****份网吧,106.574,29.5589
50010310000038,重庆****园路店,106.587,29.5682
50010310000043,渝中****轩网吧,106.574,29.5651
50010310000045,渝中****靓网吧,106.575,29.5642
50010310000046,渝中****读网吧,106.576,29.5585
50010310000047,渝中****其网吧,106.568,29.5608
50010310000050,渝中****平网吧,106.551,29.5646
50010310000054,渝中****结网吧,106.534,29.5472
50010310000055,渝中****心网吧,106.512,29.5417
50010310000058,渝中****华网吧,106.594,29.5695
50010310000060,渝中****名网吧,106.57,29.562
50010310000062,渝中****忘我),106.562,29.5673
50010310000063,渝中****玺网吧,106.56,29.5663
50010310000064,渝中****象网吧,106.522,29.5416
50010310000065,渝中****手网吧,106.565,29.5615
50010310000066,渝中****客网吧,106.585,29.5642
50010310000067,渝中****华网吧,106.584,29.5661
50010310000068,渝中****下网吧,106.579,29.561
50010310000071,渝中****谋网吧,106.524,29.5449
50010310000072,渝中****鸟网吧,106.578,29.5637
50010310000074,渝中****限网吧,106.521,29.5468
50010310000076,渝中****祥网吧,106.561,29.5661
50010310000077,渝中****网吧),106.58,29.5606
50010310000079,渝中****叶网吧,106.547,29.5552
50010310000084,渝中****星网吧,106.574,29.5633
50010310000087,渝中****缘网吧,106.586,29.5646
50010310000089,渝中****家网吧,106.533,29.549
50010310000091,渝中****华网吧,106.547,29.5552
50010310000093,渝中****晴网吧,106.591,29.5683
50010310000096,渝中****小网吧,106.529,29.5441
50010310000098,渝中****天网吧,106.555,29.5549
50010310000099,渝中****飞网吧,106.59,29.561
50010310000100,渝中****心网吧,106.58,29.5551
50010310000104,（渝****简称),106.513,29.5423
50010310000105,渝中****心网吧,106.52,29.5448
50010310000107,渝中****语网吧,106.563,29.5697
50010310000109,渝中****红网吧,106.555,29.565
50010310000110,重庆****网吧）,106.585,29.5671
50010310000112,渝中****瑰网吧,106.59,29.5612
50010310000114,(渝****派网吧,106.518,29.5474
50010310000115,渝中****宇网吧,106.582,29.5604
50010310000116,渝中****秋网吧,106.525,29.5471
50010310000119,渝中****禹网吧,106.586,29.5609
50010310000120,渝中****兴网吧,106.583,29.561
50010310000121,渝中****都网吧,106.585,29.567
50010310000123,渝中****格网吧,106.586,29.5582
50010310000125,渝中****健网吧,106.523,29.544
50010310000126,渝中****网苑),106.503,29.5407
50010310000128,渝中****网吧),106.567,29.5686
50010310000129,渝中****辉网吧,106.519,29.545
50010310000132,新华****网吧),106.578,29.5637
50010310000133,渝中****先网吧,106.557,29.5547
50010310000134,渝中****迪网吧,106.567,29.5615
50010910000104,重庆****星网吧,106.477,29.7573
50010910000105,重庆****曾网吧,106.456,29.6891
50010910000106,重庆****卡网吧,106.431,29.8383
50010910000107,重庆****发网吧,106.469,29.7353
50010910000108,北碚****平网吧,106.447,29.8284
50010910000109,重庆****顺网吧,106.441,29.8354
50010910000110,北碚****天网吧,106.441,29.8158
50010910000111,北碚****湖网吧,106.509,29.8783
50010910000112,重庆****兴网吧,106.376,29.7707
50010910000113,重庆****豪网吧,106.41,29.8057
50010910000114,重庆****龙网吧,106.441,29.8352
50010910000115,重庆****和网吧,106.441,29.8343
50010910000116,重庆****煦网吧,106.44,29.8306
50010910000117,金燕****经营）,106.392,29.8773
50010910000119,重庆****网吧）,106.444,29.8306
50010910000120,北碚****燕网吧,106.441,29.8179
50010910000121,重庆****霞网吧,106.447,29.827
50010910000122,重庆****园网吧,106.443,29.8325
50010910000123,北碚****阻网吧,106.662,30.0077
50010910000124,北碚****邓网吧,106.441,29.8354
50010910000125,重庆****驰网吧,106.414,29.808
50010910000126,重庆****驰网吧,106.445,29.8309
50010910000127,重庆****成网吧,106.481,29.7391
50010910000129,北碚****网吧）,106.431,29.8383
50010910000130,北碚****潮网吧,106.428,29.8195
50010910000131,重庆****庭网吧,106.441,29.838
50010910000133,北碚****网吧）,106.432,29.839
50010910000135,重庆****希网吧,106.506,29.7884
50010910000136,重庆****益网吧,106.442,29.8207
50010910000137,重庆****达网吧,106.431,29.8383
50010910000138,重庆****聪网吧,106.483,29.7913
50010910000140,重庆****伦网吧,106.501,29.7506
50010910000143,重庆****草网吧,106.45,29.8306
50010910000144,天磊****经营）,106.505,29.8687
50010910000146,重庆****鸿网吧,106.379,29.7713
50010910000147,后丰****经营）,106.509,29.8779
50010910000148,北碚****桥网吧,106.509,29.7888
50010910000149,重庆****宏网吧,106.444,29.8311
50010910000150,北碚****－下）,106.429,29.8226
50010910000151,重庆****子网吧,106.56,29.7764
50010910000152,北碚****达网吧,106.429,29.8219
50010910000154,重庆****花园店,106.52,29.8666
50010910000155,重庆****卡网吧,106.379,29.7719
50010910000156,重庆****润网吧,106.409,29.8074
50010910000157,北碚****炬网吧,106.396,29.7592
50010910000158,重庆****图网吧,106.429,29.8217
50010910000159,重庆****浪网吧,106.431,29.8383
50010910000160,北碚****子网吧,106.671,30.0304
50010910000161,重庆****网吧）,106.446,29.8281
50010910000162,重庆****前网吧,106.471,29.7455
50010910000164,重庆****图网吧,106.568,29.8196
50010910000165,透视****限公司,106.446,29.8341
50010910000166,重庆****网咖）,106.376,29.7702
50010910000167,北碚****建网吧,106.454,29.6734
50010910000168,北碚****络会所,106.444,29.83
50010910000169,三百****闲会所,106.441,29.8327
50010910000171,北碚****生网吧,106.429,29.8232
50010910000172,北碚****浪网吧,106.441,29.834
50010910000174,重庆****花网吧,106.41,29.8203
50010910000176,重庆****脸网吧,106.433,29.8252
50010910000177,重庆****畅网吧,106.399,29.8086
50010910000181,哈利****经营）,106.379,29.769
50010910000183,重庆****锐网吧,106.452,29.6728
50010910000184,北碚****天网吧,106.421,29.863
50010910000185,重庆****前网吧,106.446,29.8272
50010910000186,北碚****会所）,106.429,29.8227
50010910002001,重庆****朝阳店,106.52,29.8666
50010910002002,重庆****放路店,106.443,29.8341
50010910002003,骑龙****龙网吧,106.379,29.7694
50010910002004,幻灵****灵网吧,106.443,29.828
50010910002005,刘俊****俊网吧,106.48,29.7382
50010910002006,冲浪****浪网吧,106.52,29.8666
50010510000006,江北****尼网吧,106.55,29.5789
50010510000011,江北****会所）,106.714,29.6193
50010510000013,江北****阁网吧,106.548,29.5774
50010510000015,江北****喜网吧,106.561,29.5864
50010510000016,江北****科网吧,106.64,29.6168
50010510000018,江北****会所）,106.496,29.5748
50010510000019,江北****典网吧,106.549,29.584
50010510000021,江北****会所),106.482,29.5964
50010510000022,江北****鱼网吧,106.763,29.6224
50010510000024,江北****月网吧,106.768,29.6288
50010510000027,江北****江网吧,106.51,29.5816
50010510000028,江北****格网吧,106.538,29.5786
50010510000029,江北****事网吧,106.537,29.583
50010510000031,江北****会所）,106.532,29.575
50010510000033,江北****网城）,106.534,29.5874
50010510000036,江北****会所）,106.542,29.5783
50010910000034,重庆****由网吧,106.443,29.828
50010910000035,北碚****贝网吧,106.456,29.8394
50010910000036,重庆****虫网吧,106.392,29.8773
50010910000037,重庆****空网吧,106.576,29.8997
50010910000038,重庆****妹网吧,106.443,29.8308
50010910000039,北碚****核对）,106.458,29.6889
50010910000040,金德****经营）,106.376,29.7686
50010910000041,重庆****口网吧,106.373,29.7574
50010910000042,重庆****龙网吧,106.451,29.83
50010910000043,北碚****薇网吧,106.59,29.5612
50010910000045,北碚****网吧）,106.43,29.8225
50010910000046,重庆****览网吧,106.509,29.8779
50010910000047,重庆****满网吧,106.633,29.899
50010910000048,北碚****迪网吧,106.444,29.8293
50010910000049,重庆****中网吧,106.441,29.8346
50010910000050,重庆****嘉网吧,106.671,30.0304
50010910000052,重庆****源网吧,106.428,29.8195
50010910000053,东梅****经营）,106.449,29.8317
50010910000054,重庆****静网吧,106.572,29.8978
50010910000055,重庆****语网吧,106.509,29.7888
50010910000056,重庆****乐网吧,106.448,29.8238
50010910000057,重庆****久网吧,106.361,29.7517
50010910000058,重庆****事网吧,106.443,29.831
50010910000062,重庆****恋网吧,106.429,29.8209
50010910000063,重庆****龙网吧,106.441,29.8157
50010910000064,重庆****度网吧,106.414,29.8063
50010910000065,重庆****新网吧,106.444,29.8262
50010910000066,洪涛****经营）,106.48,29.7382
50010910000067,重庆****品网吧,106.43,29.8384
50010910000068,重庆****建网吧,106.41,29.8142
50010910000070,北碚****果网吧,106.445,29.8358
50010910000071,重庆****韵网吧,106.509,29.7888
50010910000072,北碚****吧（）,106.441,29.8341
50010910000073,北碚****点网吧,106.446,29.8323
50010910000074,重庆****街网吧,106.441,29.8345
50010910000075,北碚****核对）,106.441,29.8351
50010910000076,红果****果网吧,106.376,29.7707
50010910000077,鸿运****经营）,106.392,29.8773
50010910000078,北碚****侣网吧,106.409,29.8127
50010910000079,重庆****浪网吧,106.441,29.8341
50010910000080,重庆****涛网吧,106.48,29.7379
50010910000081,重庆****城网吧,106.523,29.8198
50010910000082,重庆****兴网吧,106.509,29.7888
50010910000083,重庆****族网吧,106.47,29.7342
50010910000084,重庆****琴网吧,106.431,29.8384
50010910000085,重庆****间网吧,106.44,29.8375
50010910000086,北碚****缘网吧,106.482,29.737
50010910000087,重庆****平网吧,106.399,29.8096
50010910000088,佳人****人网吧,106.432,29.8362
50010910000089,北碚****核对）,106.402,29.8068
50010910000090,北碚****金网吧,106.433,29.8247
50010910000091,北碚****核对）,106.441,29.8272
50010910000092,北碚****宝网吧,106.438,29.8091
50010910000094,北碚****网吧）,106.446,29.8339
50010910000095,北碚****泉网吧,106.462,29.8361
50010910000096,重庆****浩网吧,106.41,29.8057
50010910000097,重庆****驿网吧,106.44,29.8193
50010910000098,重庆****泰网吧,106.384,29.7859
50010910000100,重庆****源网吧,106.611,29.9584
50010910000101,重庆****惯网吧,106.429,29.8197
50010910000102,重庆****海网吧,106.43,29.8222
50010910000103,重庆****利网吧,106.575,29.9014
50010710000281,重庆****程网吧,106.32,29.525
50010710000282,九龙****族网吧,106.451,29.4617
50010710000283,重庆****城网吧,106.387,29.5138
50010710000284,九龙****络会所,106.339,29.3146
50010710000285,重庆****悦网吧,106.48,29.5088
50010710000286,九龙****情深）,106.339,29.3046
50010710000287,九龙****讯网吧,106.357,29.3333
50010710001001,（加****丰网吧,106.38,29.5098
50010710001002,（加****天网吧,106.518,29.5196
50010710001005,（加****龙网吧,106.545,29.4908
50010810000001,南岸****洞网吧,106.575,29.5306
50010810000002,南岸****蛛网吧,106.645,29.5029
50010810000003,南岸****网吧）,106.587,29.5111
50010810000005,南岸****网网吧,106.602,29.5567
50010810000006,南岸****束网吧,106.581,29.5172
50010810000007,南岸****属网吧,106.597,29.589
50010810000008,南岸****林网吧,106.671,29.5102
50010810000009,南岸****耕网吧,106.582,29.5195
50010810000010,南岸****浪网吧,106.58,29.5072
50010810000011,南岸****展网吧,106.57,29.5344
50010810000012,南岸****珑网吧,106.68,29.5641
50010810000040,重庆****桥网吧,106.673,29.5126
50010810000041,南岸****威夷）,106.609,29.6054
50010810000042,南岸****连网吧,106.556,29.5261
50010810000043,南岸****狐网吧,106.564,29.5327
50010810000044,南岸****诚网吧,106.656,29.4823
50010810000045,南岸****网吧）,106.61,29.5387
50010810000046,南岸****生网吧,106.675,29.5105
50010810000047,南岸****亮网吧,106.556,29.5267
50010810000048,南岸****网吧）,106.61,29.539
50010810000049,南岸****辉网吧,106.573,29.5299
50010810000050,南岸****网网吧,106.598,29.5873
50010810000051,南岸****客网吧,106.598,29.5875
50010810000052,重庆****任公司,106.582,29.521
50010810000053,南岸****路网吧,106.577,29.5318
50010810000055,南岸****荷网吧,106.576,29.5305
50010810000057,南岸****乐网吧,106.573,29.5182
50010810000058,南岸****色网吧,106.608,29.584
50010810000059,南岸****网网吧,106.606,29.5839
50010810000060,南岸****网吧,106.556,29.5267
50010810000061,南岸****速网吧,106.568,29.5275
50010810000062,南岸****恋网吧,106.573,29.5306
50010810000063,南岸****影网吧,106.576,29.5295
50010810000064,南岸****立网吧,106.575,29.5352
50010810000065,南岸****旗网吧,106.582,29.5374
50010810000066,南岸****成网吧,106.564,29.5305
50010810000067,南岸****怡网吧,106.62,29.5913
50010810000068,南岸****量网吧,106.609,29.6076
50010810000069,南岸****网吧）,106.585,29.543
50010810000070,南岸****网吧）,106.602,29.5532
50010810000071,南岸****点网吧,106.581,29.5013
50010810000072,南岸****骏网吧,106.574,29.5357
50010810000074,南岸****网吧,106.58,29.5113
50010810000075,南岸****取缔）,106.575,29.5385
50010810000076,南岸****浪网吧,106.575,29.5298
50010810000077,南岸****园网吧,106.581,29.5013
50010810000078,知了****取缔）,106.575,29.5383
50010810000079,南岸****鸟网吧,106.601,29.5539
50010710000066,重庆****功网吧,106.55,29.4958
50010710000068,重庆****阁网吧,106.509,29.5224
50010710000070,重庆****鑫网吧,106.508,29.5214
50010710000071,九龙****了网吧,106.527,29.5317
50010710000072,重庆****柯网吧,106.361,29.4258
50010710000074,重庆****标网吧,106.363,29.4999
50010710000078,重庆****馨网吧,106.498,29.5128
50010710000079,九龙****网吧),106.52,29.5098
50010710000080,亚联****月网吧,106.495,29.5131
50010710000083,重庆****宇网吧,106.549,29.497
50010710000084,重庆****美网吧,106.452,29.5021
50010710000085,重庆****淇网吧,106.517,29.518
50010710000086,重庆****门网吧,106.294,29.4622
50010710000087,重庆****拉网吧,106.459,29.476
50010710000088,九龙****技公司,106.534,29.5135
50010710000089,九龙****火网吧,106.523,29.5272
50010710000090,重庆****返网吧,106.48,29.5079
50010710000091,九龙****文网吧,106.452,29.4524
50010710000093,重庆****马网吧,106.374,29.5252
50010710000097,九龙****网吧）,106.392,29.2993
50010710000098,重庆****兰网吧,106.333,29.4265
50010710000099,重庆****松网吧,106.392,29.3021
50010710000102,九龙****间网吧,106.513,29.5044
50010710000103,重庆****都网吧,106.372,29.5287
50010710000105,重庆****停业）,106.377,29.4948
50010710000106,重庆****上网吧,106.377,29.4961
50010710000107,重庆****和网吧,106.449,29.5046
50010710000108,重庆****兰网吧,106.378,29.5241
50010710000109,重庆****远网吧,106.377,29.4961
50010710000110,重庆****香网吧,106.458,29.4789
50010710000111,九龙****驰网吧,106.517,29.5197
50010710000115,重庆****号网吧,106.371,29.4346
50010710000116,九龙****果网吧,106.44,29.4667
50010710000117,九龙****线网吧,106.521,29.5154
50010710000118,九龙****兴网吧,106.34,29.3044
50010710000120,九龙****汇网吧,106.44,29.4672
50010710000122,九龙****川网吧,106.446,29.4821
50010710000124,重庆****友网吧,106.448,29.4556
50010710000125,重庆****君网吧,106.488,29.5031
50010710000126,重庆****义网吧,106.377,29.524
50010710000129,九龙****兰网吧,106.509,29.518
50010710000132,九龙****（换）,106.521,29.5127
50010710000136,九龙****限公司,106.529,29.515
50010710000137,重庆****天网吧,106.518,29.5196
50010710000138,重庆****码网吧,106.482,29.5103
50010710000139,九龙****聚网吧,106.44,29.4672
50010710000140,重庆****双网吧,106.517,29.518
50010710000141,九龙****门网吧,106.522,29.5187
50010810000121,南岸****博网吧,106.681,29.536
50010810000122,南岸****上网吧,106.568,29.5191
50010810000123,南岸****竹网吧,106.61,29.539
50010810000125,南岸****塘网吧,106.576,29.5351
50010810000126,南岸****束网吧,106.601,29.5863
50010810000127,南岸****禾网吧,106.61,29.5389
50010810000130,南岸****网吧）,106.557,29.5262
50010810000132,南岸****澄网吧,106.531,29.5446
50010810000133,南岸****越网吧,106.571,29.531
50010810000134,南岸****网苑）,106.596,29.5494
50010810000135,南岸****林网吧,106.574,29.5391
50010810000136,南岸****宇网吧,106.578,29.4911
50010810000137,南岸****成网吧,106.532,29.5756
50010810000141,南岸****战网吧,106.595,29.5491
50010810000148,南岸****棠网吧,106.588,29.5439
50010810000149,南岸****网吧）,106.584,29.5189
50010810000150,南岸****海网吧,106.68,29.5641
50010810000151,南岸****昌网城,106.579,29.5311
50010810000152,南岸****虫网吧,106.601,29.596
50010810000158,南岸****慧网吧,106.649,29.4926
50010810000159,南岸****齐网吧,106.609,29.5817
50010810000160,南岸****纪网吧,106.645,29.5029
50010810000161,南岸****光网吧,106.574,29.5372
50010810000162,南岸****特网吧,106.569,29.5193
50010810000163,南岸****狐网吧,106.568,29.533
50010810000164,南岸****网吧）,106.58,29.5163
50010810000165,南岸****林网吧,106.573,29.5066
50010810000166,南岸****星网吧,106.619,29.6086
50010810000168,南岸****桦网吧,106.583,29.5321
50010810000170,南岸****英网吧,106.598,29.5867
50010810000172,南岸****边网吧,106.59,29.5469
50022510000001, 大****呱网吧,105.763,29.5741
50010810000179,南岸****春网吧,106.573,29.5343
50010810000182,南岸****人网吧,106.581,29.518
50010810000183,南岸****联杰),106.56,29.5348
50010810000184,南岸****网吧）,106.559,29.5273
50010810000187,南岸****虫网吧,106.577,29.5325
50010810000188,南岸****念网吧,106.581,29.5278
50010810000193,南岸****浪网吧,106.587,29.5449
50010810000194,南岸****费点）,106.667,29.5415
50010810000195,南岸****费点）,106.575,29.5353
50010810000196,南岸****君网吧,106.577,29.5355
50010910000001,信游****游网吧,106.379,29.7694
50010910000002,北碚****限公司,106.376,29.7705
50010910000003,重庆****喜网吧,106.369,29.7621
50010910000004,重庆****区网吧,106.501,29.7506
50010910000006,重庆****林网吧,106.52,29.8666
50010910000007,重庆****乐网吧,106.476,29.7334
50010910000008,北碚****费点）,106.376,29.7704
50010910000009,重庆****轮网吧,106.47,29.7342
50010910000010,北碚****网吧）,106.376,29.7707
50010910000011,北碚****核对）,106.408,29.8245
50010910000012,重庆****祥网吧,106.506,29.785
50010910000013,北碚****智网吧,106.456,29.6891
50010910000014,北碚****网吧）,106.433,29.825
50010910000015,北碚****未用）,106.429,29.8232
50010910000016,重庆****东梅）,106.449,29.8317
50010910000017,重庆****腾网吧,106.448,29.8366
50010910000018,北碚****网吧）,106.444,29.8309
50010910000019,重庆****翼网吧,106.444,29.8313
50010910000020,重庆****潮网吧,106.454,29.8315
50010910000022,新天****经营）,106.379,29.7689
50010910000023,北碚****核对),106.369,29.7621
50010910000024,北碚****光网吧,106.441,29.834
50010910000025,重庆****怡网吧,106.433,29.8304
50010910000026,北碚****费点）,106.449,29.8317
50010910000027,北碚****江网吧,106.441,29.8351
50010910000028,重庆****清网吧,106.56,29.7764
50010910000029,梦想****经营）,106.379,29.7688
50010910000030,北极****网吧）,106.415,29.8691
50010910000032,北碚****宇网吧,106.52,29.8666
50010910000033,重庆****源网吧,106.671,29.6667
50010710000008,重庆****影网吧,106.525,29.5191
50010710000013,九龙****龙网吧,106.319,29.5453
50010710000015,重庆****义网吧,106.371,29.4346
50010710000017,九龙****斯网吧,106.523,29.5148
50010710000018,重庆****地网吧,106.496,29.5004
50010710000019,重庆****近网吧,106.523,29.5272
50010710000020,重庆****来网吧,106.377,29.4961
50010710000023,九龙****会所),106.517,29.5162
50010710000029,重庆****缘网吧,106.55,29.4958
50010710000030,重庆****辰网吧,106.533,29.5034
50010710000031,重庆****速网吧,106.511,29.5203
50010710000032,重庆****奇网吧,106.545,29.4908
50010710000035,九龙****通网吧,106.532,29.5044
50010710000231,九龙****克网吧,106.519,29.5143
50010710000232,重庆****格网吧,106.333,29.3033
50010710000233,重庆****世网吧,106.454,29.4377
50010710000234,重庆****宇网吧,106.34,29.3044
50010710000235,重庆****城网吧,106.334,29.3033
50010710000236,重庆****静网吧,106.497,29.5106
50010710000237,重庆****虎网吧,106.457,29.4394
50010710000238,重庆****城网吧,106.452,29.4524
50010710000240,重庆****者网吧,106.522,29.5306
50010710000241,重庆****丽网吧,106.377,29.524
50010710000243,重庆****地网吧,106.457,29.5024
50010710000244,九龙****辉网吧,106.441,29.4862
50010710000245,闲了****了网吧,106.522,29.5318
50010710000249,重庆****鱼网吧,106.481,29.5099
50010710000252,重庆****星网吧,106.377,29.4976
50010710000253,重庆****妮网吧,106.492,29.4998
50010710000254,重庆****龙网吧,106.407,29.5105
50010710000255,重庆****丰网吧,106.38,29.5098
50010710000256,重庆****络会所,106.514,29.5053
50010710000257,重庆****蜂网吧,106.341,29.3099
50010710000258,亚联****文网吧,106.533,29.505
50010610002002,重庆****嘟网吧,106.454,29.5679
50010610002003,重庆****鹊网吧,106.46,29.5714
50010610002004,重庆****晖网吧,106.466,29.5698
50010610002005,重庆****亚网吧,106.466,29.5698
50010610002006,重庆****缘网吧,106.445,29.5582
50010610002007,重庆****人网吧,106.475,29.5665
50010610002008,重庆****斯网吧,106.548,29.5586
50010610002009,重庆****斯网吧,106.31,29.6089
50010610002010,重庆****程网吧,106.468,29.5685
50010610002011,重庆****友网吧,106.468,29.5685
50010610002012,重庆****年网吧,106.383,29.6054
50010610002013,重庆****星网吧,106.472,29.5681
50010610002014,重庆****素网吧,106.472,29.568
50010610002016,重庆****费点),106.475,29.5665
50010610002017,重庆****多网吧,106.476,29.566
50010610002018,沙坪****聊天室,106.475,29.5656
50010610002019,暴雪****宪均),106.475,29.5661
50010610002020,重庆****头网吧,106.387,29.5919
50010610002021,重庆****马网吧,106.479,29.5669
50010610002023,重庆****众网吧,106.38,29.6021
50010610002024,重庆****辉网吧,106.479,29.5602
50010510000156,重庆****会所）,106.714,29.6193
50010510000157,江北****会所）,106.539,29.5903
50010510000168,江北****帐号),106.536,29.5851
50010610001001,重庆****网吧）,106.383,29.5916
50010610001002,重庆****进网吧,106.385,29.6026
50010610001003,沙坪****闲会所,106.452,29.579
50010610001005,重庆****光网吧,106.453,29.5303
50010610001006,重庆****狐网吧,106.383,29.5897
50010610001008,重庆****海网吧,106.48,29.5659
50010610001009,重庆****窗网吧,106.45,29.5771
50010610001010,重庆****伊网城,106.45,29.5772
50010610001011,(加****世伟),106.45,29.5771
50010610001012,重庆****隆网吧,106.453,29.58
50010610001013,重庆****网吧),106.471,29.5575
50010610001014,沙坪****青网吧,106.453,29.5793
50010610001015,重庆****咕网吧,106.454,29.5778
50010610001016,重庆****藤网吧,106.299,29.6015
50010610001017,重庆****子网吧,106.456,29.5838
50010610001018,重庆****网吧),106.453,29.58
50010610002001,重庆****羽网吧,106.453,29.5688
50010710000142,重庆****盈网吧,106.333,29.3043
50010710000143,九龙****仁网吧,106.529,29.5142
50010710000144,九龙****力网吧,106.333,29.3033
50010710000145,重庆****兹网吧,106.449,29.5046
50010710000147,重庆****桃网吧,106.357,29.38
50010710000149,重庆****天网吧,106.457,29.5024
50010710000150,重庆****空网吧,106.338,29.4185
50010710000151,九龙****兰网吧,106.34,29.3044
50010710000154,九龙****行网吧,106.452,29.4705
50010710000156,重庆****牌网吧,106.52,29.5176
50010710000157,重庆****宇网吧,106.488,29.5031
50010710000158,重庆****满网吧,106.421,29.487
50010710000159,九龙****杨网吧,106.534,29.5135
50010710000160,九龙****宇网吧,106.452,29.4705
50010710000161,九龙****缘网吧,106.514,29.5143
50010710000162,重庆****速网吧,106.377,29.5272
50010710000165,九龙****王网吧,106.492,29.4999
50010710000166,重庆****悦网吧,106.405,29.509
50010710000168,重庆****乐网吧,106.524,29.5229
50010710000169,九龙****逸网吧,106.437,29.4416
50010710000170,重庆****网吧）,106.521,29.5314
50010710000171,重庆****梦网吧,106.376,29.526
50010710000174,重庆****来网吧,106.375,29.5258
50010710000175,重庆****三网吧,106.508,29.5214
50010710000176,重庆****珊网吧,106.379,29.545
50010610002026,沙坪****倶乐部,106.467,29.5689
50010610002030,重庆****嘟网吧,106.454,29.5679
50010610002031,联通****莱特),106.466,29.5645
50010610002032,重庆****浪网吧,106.467,29.564
50010610002033,重庆****力网吧,106.464,29.5648
50010610002034,重庆****浪网城,106.464,29.5647
50010610002035,重庆****浪网城,106.464,29.5647
50010610002036,重庆****费点),106.464,29.5647
50010610002038,沙坪****E家),106.468,29.5614
50010610002039,(加****俊成),106.464,29.5646
50010610002040,重庆****座网吧,106.45,29.6093
50010610002043,(加****江涛),106.464,29.5646
50010610002047,自由****奇兵),106.466,29.5632
50010610002048,重庆****带网吧,106.465,29.5646
50010610002049,重庆****费点),106.465,29.5646
50010610002051,重庆****春网吧,106.467,29.5687
50010610002053,(加****吴强),106.465,29.5646
50010610002054,重庆****原网吧,106.314,29.6001
50010610002065,重庆****力网吧,106.47,29.5618
50010610002066,联通****苑林凌,106.466,29.5611
50010610002067,沙坪****会所）,106.466,29.5638
50010610002068,(加****苑林凌,106.466,29.5638
50010610002041,重庆****费点),106.464,29.5647
50010610002069,重庆****费点),106.466,29.5638
50010610002070,重庆****东网吧,106.471,29.5643
50010610002071,重庆****散网吧,106.471,29.5643
50010610002072,重庆****通网吧,106.465,29.5607
50010610002073,沙坪****欣阳店,106.303,29.8407
50010610002076,沙坪****分公司,106.479,29.5637
50010610002077,沙坪****俱乐部,106.469,29.5704
50010610002078,重庆****迷俱乐,106.469,29.5704
50010610002079,沙坪****网苑),106.465,29.5769
50010610002090,重庆****限公司,106.475,29.5686
50010610002091,重庆****钇网吧,106.465,29.577
50010610002092,重庆****网吧),106.464,29.5789
50010610002093,沙坪****乙网吧,106.381,29.5981
50010610002094,重庆****隼网吧,106.464,29.5789
50010610002096,重庆****网吧),106.462,29.5673
50010610002097,重庆****丁网吧,106.466,29.5626
50010610004001,重庆****闲网吧,106.375,29.6305
50010610004002,重庆****轩网吧,106.478,29.5587
50010610004003,重庆****双网吧,106.315,29.6268
50010610004004,重庆****梦网吧,106.463,29.5523
50010610004006,重庆****联网吧,106.467,29.5604
50010610004007,重庆****月网吧,106.339,29.6251
50010610004008,重庆****福网吧,106.471,29.5571
50010610004009,重庆****坤网吧,106.478,29.5469
50010610004010,重庆****网吧）,106.469,29.5588
50010610004011,沙坪****锦网吧,106.477,29.5448
50010710000260,重庆****直营店,106.377,29.4961
50011210000039,渝北****天网吧,106.635,29.723
50011210000040,渝北****意网吧,106.641,29.7747
50011210000041,渝北****都网吧,106.643,29.7759
50011210000042,渝北****虹网吧,106.615,29.6744
50011210000043,渝北****域网吧,106.526,29.5945
50011210000044,渝北****高网吧,106.519,29.5899
50011210000045,渝北****纪网吧,106.515,29.5847
50011210000046,渝北****洋网吧,106.64,29.7263
50011210000047,渝北****庆网吧,106.519,29.5966
50011210000048,渝北****纪网吧,106.523,29.6048
50011210000049,渝北****登网吧,106.805,29.7082
50011210000050,渝北****福网吧,106.802,29.7053
50011210000051,渝北****缘网吧,106.523,29.6064
50010710000262,九龙****络会所,106.532,29.5362
50010710000263,重庆****五网吧,106.488,29.5031
50010710000264,重庆****宇网吧,106.352,29.3667
50010710000265,九龙****网吧),116.509,40.1885
50010710000266,重庆****西网吧,106.372,29.4895
50010710000268,重庆****创网吧,106.451,29.4709
50010710000269,重庆****云网吧,106.548,29.4973
50010710000270,重庆****龙网吧,106.457,29.5024
50010710000271,九龙****洋网吧,106.335,29.4251
50010710000272,九龙****岩网城,106.457,29.5024
50010710000273,亚联****家网吧,106.36,29.378
50010710000276,重庆****直港店,106.452,29.5021
50010710000277,九龙****停业）,106.371,29.4346
50010710000279,九龙****斧网吧,106.525,29.5151
50010710000280,韵龙****网吧）,106.521,29.5147
50010710000036,九龙****湾网吧,106.517,29.513
50010710000039,重庆****实网吧,106.337,29.4168
50010710000040,重庆****友网吧,106.543,29.4911
50010710000041,九龙****南网吧,106.352,29.4189
50010710000043,重庆****地网吧,106.544,29.4908
50010710000047,重庆****利网吧,106.549,29.4984
50010710000048,重庆****宽网吧,106.518,29.5196
50010710000051,重庆****宝网吧,106.55,29.4986
50010710000056,九龙****新网吧,106.523,29.517
50010710000057,九龙****赫网吧,106.518,29.5087
50010710000058,九龙****城网吧,106.516,29.5182
50010710000060,重庆****间网吧,106.523,29.5205
50010710000061,重庆****斯网吧,106.55,29.4958
50010710000065,重庆****斯网吧,106.333,29.3033
50011210000103,渝北****季网吧,106.627,29.7089
50011210000104,渝北****乐网吧,106.494,29.5964
50011210000105,渝北****喜网吧,106.525,29.5943
50011210000106,渝北****上网吧,106.635,29.713
50011210000107,渝北****明网吧,106.939,29.7343
50011210000081,渝北****河网吧,106.628,29.7104
50011210000083,渝北****侠网吧,106.63,29.7135
50011210000084,渝北****蛙网吧,106.512,29.5925
50011210000085,渝北****译网吧,106.617,29.6722
50011210000086,渝北****铁网吧,106.602,29.6931
50011210000087,渝北****兴网吧,106.602,29.6856
50011210000088,渝北****友网吧,106.613,29.6822
50011210000089,渝北****豆网吧,106.637,29.7268
50011210000090,渝北****亚网吧,106.643,29.7759
50011210000135,渝北****霞网吧,106.611,29.6924
50015310000032,北部****星网吧,106.557,29.613
50015310000033,北部****朵网吧,106.209,29.285
50015310000035,北部****人网吧,108.713,30.9428
50015310000036,北部****原网吧,106.555,29.6129
50015310000038,北部****森网吧,106.565,29.6622
50015310000039,北部****色网吧,106.548,29.6332
50099910000001,重庆****部专用,106.531,29.5446
50099910000002,重庆****测试部,106.492,29.5367
50099910000010,重庆****试01,106.492,29.5367
50099910000013,丰都****限公司,107.741,29.8729
50099910000014,沙坪****服务站,106.47,29.5576
50010710000267,九龙****鲁网吧,106.522,29.5187
50023310000005,忠县****间网吧,108.051,30.306
50023310000006,忠县****络驿站,108.045,30.2972
50023310000007,忠县****天网吧,107.733,30.3081
50023310000008,忠县****客网吧,108.048,30.2991
50023310000009,忠县****闲会所,108.039,30.2944
50023310000010,忠县****深网吧,108.05,30.3019
50023310000011,忠县****力网吧,108.05,30.2994
50023310000012,忠县****浪网吧,108.039,30.2982
50023310000013,忠县****河网吧,108.079,30.5015
50023310000014,忠县****网络屋,107.747,30.398
50023310000015,忠县****潮网吧,107.877,30.3886
50011310000138,巴南****客网吧,106.535,29.465
50011310000139,巴南****林网吧,106.556,29.4447
50011310000152,巴南****件狗）,106.568,29.4757
50011310000153,巴南****牛网吧,106.57,29.4811
50011310000154,巴南****件狗）,106.531,29.3872
50011310000155,巴南****件狗）,106.526,29.3892
50015110000001,高新****下网吧,106.501,29.539
50015110000003,高新****乐网吧,106.494,29.5315
50015110000004,高新****点网吧,106.485,29.5349
50015110000005,高新****豪网吧,106.457,29.5082
50015110000006,高新****会馆）,106.488,29.5348
50015110000008,高新****琳网吧,106.466,29.5094
50015110000009,高新****会所）,106.484,29.5314
50015110000010,高新****蓝网吧,106.5,29.5392
50015110000011,高新****贵网吧,106.508,29.5417
50015110000012,高新****生网吧,106.496,29.5406
50015110000013,高新****个网吧,106.472,29.5265
50015110000014,高新****七网吧,106.482,29.5275
50015110000015,高新****会所),106.488,29.5364
50015110000016,高新****会所）,106.492,29.5281
50015110000017,高新****钻网吧,106.482,29.5368
50015110000020,高新****客网吧,106.491,29.5337
50015110000021,高新****宏网吧,106.497,29.5372
50015110000022,高新****会所）,106.494,29.5393
50015110000024,高新****费点）,106.494,29.5393
50015110000025,高新****蛛网吧,106.482,29.5365
50015110000028,高新****星网吧,106.493,29.539
50015110000029,高新****纪网吧,106.488,29.53
50015110000030,高新****会所）,106.481,29.5267
50015110000031,高新****会所）,106.497,29.5321
50015110000032,高新****苑网吧,106.489,29.5346
50015110000033,高新****点网吧,106.505,29.5398
50015110000034,高新****征网吧,106.472,29.5097
50015110000035,高新****星网吧,106.498,29.5363
50015110000036,高新****乐网吧,106.492,29.543
50015110000037,高新****凼网吧,106.342,29.3464
50015110000038,高新****网吧）,106.497,29.5296
50015110000039,高新****潮网吧,106.499,29.5368
50015110000040,高新****酷网吧,106.479,29.5183
50015110000041,高新****发网吧,106.486,29.5343
50015110000042,高新****会所）,106.489,29.5352
50015110000043,高新****洋网吧,106.487,29.5337
50015110000044,高新****情网吧,106.465,29.5252
50015110000045,高新****鸟网吧,106.502,29.5403
50015110000047,高新****米网吧,106.496,29.5363
50015110000048,高新****会所）,106.464,29.5219
50015110000049,高新****亚网吧,106.472,29.5212
50015110000050,高新****霞网吧,106.46,29.5117
50015110000051,高新****漠之舟,106.46,29.5219
50015110000052,高新****往网吧,106.484,29.5375
50015110000053,高新****会所）,106.486,29.5356
50015110000054,高新****华网吧,106.465,29.5269
50015110000059,高新****商网吧,106.463,29.5212
50015110000061,高新****网城）,106.459,29.5005
50015110000063,高新****会所）,106.482,29.5275
50015110000064,高新****富网吧,106.487,29.5421
50010710000178,九龙****鑫网吧,106.442,29.4859
50010710000180,重庆****铭网吧,106.51,29.5231
50010710000181,九龙****治网吧,106.518,29.5196
50010710000182,九龙****揽网吧,106.441,29.4682
50010710000183,重庆****缘网吧,106.521,29.524
50010710000184,九龙****百网吧,106.519,29.5143
50010710000186,重庆****特网吧,106.526,29.5155
50010710000187,九龙****创网吧,106.509,29.5024
50010710000188,九龙****变网吧,106.452,29.4705
50010710000189,九龙****轩网吧,106.44,29.4658
50010710000190,九龙****网吧）,106.34,29.3044
50010710000191,重庆****尚网吧,106.32,29.5243
50010710000192,九龙****唐网吧,106.446,29.4821
50010710000193,九龙****力网吧,106.512,29.5039
50010710000194,重庆****水网吧,106.486,29.5071
50010710000195,九龙****空网吧,106.442,29.4824
50010710000196,重庆****天网吧,106.339,29.3076
50010710000198,重庆****启网吧,106.535,29.4977
50010710000199,九龙****亮网吧,106.455,29.4396
50010710000200,九龙****艺网吧,106.447,29.4417
50010710000201,九龙****健网吧,106.517,29.513
50010710000202,九龙****瑞网吧,106.499,29.5059
50010710000203,九龙****势力),106.523,29.5179
50010710000205,九龙****迪网吧,106.547,29.4969
50010710000206,九龙****远网吧,106.523,29.5148
50010710000210,重庆****亚网吧,106.513,29.5211
50010710000214,重庆****都网吧,106.353,29.3672
50010710000215,重庆****发网吧,106.369,29.4266
50010710000216,九龙****应网吧,106.517,29.518
50010710000217,重庆****回网吧,106.371,29.5503
50010710000219,重庆****信网吧,106.464,29.5021
50010710000220,重庆****禾网吧,106.501,29.5229
50010710000221,重庆****克网吧,106.456,29.5014
50010710000222,重庆****都网吧,106.379,29.4979
50010710000223,重庆****达网吧,106.587,29.6271
50010710000224,九龙****芮网吧,106.437,29.4416
50010710000225,重庆****来网吧,106.383,29.5086
50010710000227,九龙****网城）,106.518,29.5142
50010710000228,九龙****逸网吧,106.44,29.4672
50010710000229,九龙****特网吧,106.524,29.5149
50010610009027,沙区****柱网吧,106.377,29.5573
50010610009028,沙坪****雨网吧,106.344,29.6214
50010610009029,重庆****力网吧,106.338,29.6277
50010610009030,渔人****线回龙,106.392,29.7119
50010610009032,沙坪****闲会所,106.337,29.6261
50010610009033,沙坪****网吧),106.308,29.6085
50010610009034,渔人****线西永,106.384,29.6034
50010610009035,重庆****光海),106.308,29.6085
50010610009036,重庆****络会所,106.308,29.6085
50010610009038,重庆****居网吧,106.313,29.5636
50010610009039,重庆****珊网吧,106.38,29.6362
50010610009040,重庆****浪网吧,106.375,29.6305
50010610009041,重庆****日网吧,106.31,29.5556
50010610009042,重庆****泉网吧,106.339,29.625
50010610009043,重庆****伟网吧,106.341,29.6477
50010610009045,亚联****恋网城,106.311,29.5557
50010610009046,沙坪****鱼网吧,106.312,29.5857
50010610009047,重庆****亮网吧,106.338,29.6274
50010610009048,重庆****费点),106.338,29.6274
50010610009049,重庆****桃网吧,106.338,29.6254
50010610009050,重庆****品网吧,106.316,29.681
50010610009051,重庆****网吧）,106.308,29.6085
50010610009052,重庆****空网吧,106.337,29.6261
50010610009053,重庆****网吧）,106.308,29.6085
50010610009054,重庆****志网吧,106.308,29.6085
50010710000001,九龙****隐网吧,106.523,29.5199
50010710000006,九龙****境网吧,106.519,29.5143
50011310000087,巴南****线网吧,106.55,29.4698
50011310000088,巴南****伟网吧,106.527,29.3845
50011310000089,巴南****晰网吧,106.548,29.4067
50011310000090,巴南****晰网吧,106.55,29.4631
50011310000091,巴南****色网吧,106.542,29.4717
50011310000092,巴南****语网吧,106.55,29.4603
50011310000093,巴南****心网吧,106.545,29.4719
50011310000094,巴南****娅网吧,106.539,29.4723
50011310000095,巴南****亚网吧,106.531,29.3868
50011310000096,巴南****飞网吧,106.55,29.4583
50011310000097,巴南****颖网吧,106.513,29.3929
50011310000098,巴南****语网吧,106.526,29.3858
50011310000099,巴南****狼网吧,106.617,29.3893
50011310000100,巴南****石网吧,106.542,29.4724
50011310000101,巴南****远网吧,106.602,29.4329
50011310000102,巴南****喱网吧,106.845,29.5772
50011310000104,巴南****香网吧,106.869,29.4593
50011310000105,巴南****采网吧,106.515,29.3981
50011310000106,巴南****尚网吧,106.513,29.3947
50011310000107,巴南****润网吧,106.613,29.3931
50011310000108,巴南****妹网吧,106.57,29.4811
50011310000109,巴南****韵网吧,106.535,29.4661
50011310000110,巴南****佑网吧,106.526,29.3875
50011310000112,巴南****间网吧,106.549,29.4715
50011310000113,巴南****园网吧,106.549,29.4078
50011310000114,巴南****和网吧,106.526,29.3892
50011310000115,巴南****速网吧,106.621,29.4502
50011310000116,巴南****乐网吧,106.58,29.5612
50011310000117,巴南****顺网吧,106.55,29.4583
50011310000118,巴南****光网吧,106.541,29.463
50011310000119,巴南****英网吧,106.534,29.4652
50011310000121,巴南****力网吧,106.575,29.4295
50011310000122,巴南****络会馆,106.513,29.3938
50011310000123,巴南****悠网吧,106.602,29.4298
50011310000124,巴南****方网吧,106.524,29.4604
50011310000125,巴南****缘网吧,106.888,29.1918
50011310000126,巴南****大网吧,106.518,29.3919
50011310000127,巴南****光网吧,106.567,29.4767
50011310000128,巴南****情网吧,106.589,29.2571
50011310000131,巴南****网吧）,106.544,29.4727
50011310000135,巴南****雅网吧,106.465,29.5022
50011310000136,巴南****胡网吧,106.529,29.3806
50010610004012,重庆****芳网吧,106.478,29.5454
50010610004013,重庆****网吧),106.478,29.5454
50010610004014,重庆****楼网吧,106.48,29.5616
50010610005001,重庆****婷网吧,106.465,29.5579
50010610005002,重庆****达网吧,106.314,29.5658
50010610005003,重庆****座网吧,106.463,29.5533
50010610005004,沙坪****子座),106.465,29.5547
50010610005006,重庆****下网吧,106.462,29.5461
50010610005007,重庆****舟网吧,106.459,29.5554
50010610005008,重庆****意网吧,106.461,29.5508
50010610005009,重庆****空网吧,106.461,29.5512
50010610005011,重庆****康网吧,106.384,29.594
50010610005012,重庆****浪网吧,106.456,29.5439
50010610005013,重庆****艳网吧,106.455,29.5311
50010610005014,重庆****府网吧,106.313,29.5561
50010610005015,重庆****岸网吧,106.299,29.6016
50010610005016,重庆****佳网吧,106.453,29.5303
50010610005017,重庆****络会所,106.45,29.5774
50010610005018,重庆****谊网吧,106.449,29.5564
50010610005019,重庆****聚网吧,106.45,29.5651
50010610005020,重庆****力网吧,106.449,29.5341
50010610005021,重庆****力网吧,106.464,29.5451
50010610005022,重庆****海网吧,106.459,29.5516
50010610005023,重庆****触网吧,106.459,29.5448
50010610006004,重庆****来网吧,106.383,29.5897
50010610006005,重庆****沁网吧,106.312,29.5635
50010610006006,重庆****环网吧,106.447,29.5188
50010610006007,重庆****宇网吧,106.447,29.5209
50010610006008,重庆****卓网吧,106.385,29.6021
50010610006009,重庆****妹网吧,106.446,29.5305
50010610006010,重庆****孙网吧,106.391,29.7309
50010610006011,重庆****快网吧,106.432,29.7554
50010610006012,沙坪****彩网吧,106.375,29.6305
50010610006013,重庆****快网吧,106.432,29.7554
50010610006014,重庆****波网吧,106.447,29.519
50010610006015,重庆****悦网吧,106.447,29.5176
50010610006016,重庆****花网吧,106.448,29.5215
50010610006017,(加****明春),106.447,29.519
50010610006018,重庆****潮网吧,106.447,29.519
50010610006019,重庆****人网吧,106.447,29.5209
50010610006020,重庆****人网吧,106.447,29.5177
50010610007001,重庆****对网吧,106.425,29.682
50010610007002,重庆****浪网吧,106.428,29.5186
50010610007003,重庆****罗网吧,106.425,29.5203
50010610007004,重庆****往网吧,106.418,29.5582
50010610007005,重庆****爵网吧,106.426,29.5293
50010610007006,重庆****诚网吧,106.461,29.5473
50010610007007,重庆****情网吧,106.43,29.5183
50010610007008,重庆****川网吧,106.427,29.5292
50010610007009,重庆****话网吧,106.425,29.5741
50010610007010,重庆****臣网吧,106.426,29.5728
50010610007011,重庆****涯网吧,106.311,29.5557
50010610007012,重庆****真网吧,106.469,29.5708
50010610007013,重庆****楼网吧,106.423,29.5947
50010610007014,重庆****德网吧,106.421,29.597
50010610007015,重庆****群网吧,106.42,29.6096
50010610007016,重庆****枫网吧,106.426,29.516
50010610008001,重庆****击网吧,106.45,29.6093
50010610008002,重庆****极网吧,106.452,29.6105
50010610008004,重庆****创网吧,106.42,29.6096
50010610008005,重庆****华网吧,106.45,29.6105
50010610008006,重庆****阁网吧,106.375,29.6305
50010610008007,重庆****翔网吧,106.313,29.5636
50010610008008,重庆****水网吧,106.449,29.6221
50010610008009,重庆****趣网吧,106.338,29.6257
50010610008010,重庆****子网吧,106.464,29.5391
50010610008012,重庆****秀网吧,106.466,29.6573
50010610009001,重庆****途网吧,106.382,29.6014
50010610009002,重庆****铃网吧,106.378,29.6367
50010610009003,重庆****宏网吧,106.391,29.71
50010610009004,重庆****禄网吧,106.343,29.6241
50010610009005,重庆****强网吧,106.337,29.6256
50010610009006,重庆****世网城,106.338,29.6275
50010610009008,重庆****域网吧,106.322,29.6917
50010610009009,重庆****云网吧,106.314,29.6802
50010610009010,重庆****姐网吧,106.262,29.6348
50010610009011,重庆****刘网吧,106.316,29.6822
50010610009012,重庆****越网吧,106.315,29.6803
50010610009013,重庆****力网吧,106.381,29.5984
50010610009014,重庆****发网吧,106.342,29.6251
50010610009015,重庆****力网吧,106.338,29.6269
50010610009016,重庆****力网吧,106.339,29.6267
50010610009017,重庆****力网吧,106.311,29.6068
50010610009018,沙坪****网吧）,106.308,29.6085
50010610009019,(加****色动力,106.531,29.5446
50010610009020,重庆****春阳店,106.31,29.5638
50010610009021,重庆****力网吧,106.314,29.5658
50010610009022,重庆****力网吧,106.308,29.6085
50010610009023,重庆****网吧）,106.308,29.6085
50010610009024,沙坪****家网吧,106.312,29.5652
50010610009025,重庆****费点),106.301,29.6166
50010610009026,沙区****力网吧,106.384,29.6101
50015310000008,北部****福网吧,106.582,29.6381
50015310000009,北部****园网吧,106.567,29.6425
50015310000010,北部****缘网吧,106.535,29.6257
50015310000011,北部****龙网吧,106.538,29.6261
50015310000012,北部****飚网吧,106.536,29.6273
50015310000013,北部****彩网吧,106.531,29.6232
50015310000014,北部****儿网吧,106.535,29.6256
50015310000015,北部****恒网吧,106.523,29.6207
50015310000016,北部****渺网吧,106.538,29.6258
50015310000017,北部****座网吧,106.487,29.6395
50015310000018,北部****豆网吧,106.562,29.673
50015310000019,北部****网吧）,106.563,29.5675
50015310000020,北部****会所）,106.533,29.6247
50015310000021,北部****网络）,106.537,29.6368
50015310000022,北部****舟网吧,106.494,29.6382
50015310000023,北部****陆网吧,106.481,29.6334
50015310000024,北部****林网吧,106.482,29.6306
50015310000025,北部****氏网吧,106.49,29.6372
50015310000027,北部****会所）,106.511,29.6073
50015310000028,北部****会所）,106.555,29.6066
50015310000029,北部****山网吧,106.539,29.6111
50015310000030,北部****吧,106.551,29.609
50023310000016,忠县****炬网吧,108.045,30.2972
50023310000017,忠县****光网吧,108.045,30.298
50023310000018,忠县****缘网吧,108.05,30.2991
50023310000019,忠县****鹏网吧,108.04,30.2949
50023310000020,忠县****神网吧,108.054,30.3073
50023310000021,忠县****8网吧,107.705,30.3603
50023310000023,忠县****代网吧,108.05,30.299
50023310000024,忠县****伟网吧,107.877,30.3886
50023310000025,忠县****三网吧,108.079,30.5015
50023310000026,忠县****客网吧,108.049,30.2988
50023310000027,忠县****往网吧,108.029,30.3067
50023310000028,忠县****份网吧,107.653,30.2853
50023310000029,忠县****飞网吧,108.03,30.3058
50023310000030,忠县****恒网吧,107.73,30.3063
50023310000031,忠县****众网吧,108.083,30.5018
50023310000032,忠县****网络屋,108.048,30.2989
50011210000052,渝北****港网吧,106.641,29.745
50011210000053,渝北****笛网吧,106.503,29.594
50011210000054,渝北****雨网吧,106.637,29.7274
50011210000055,渝北****津网吧,106.634,29.7201
50011210000056,渝北****园网吧,106.511,29.5914
50011210000059,渝北****联网吧,106.613,29.6822
50011210000060,渝北****山网吧,106.636,29.722
50011210000061,渝北****间网吧,106.63,29.7235
50011210000062,渝北****金网吧,106.602,29.69
50011210000063,渝北****辉网吧,106.51,29.5963
50011210000065,渝北****达网吧,106.518,29.5872
50011210000066,渝北****你网吧,106.625,29.7106
50011210000067,渝北****双网吧,106.635,29.7376
50011210000068,渝北****端网吧,106.523,29.6048
50011210000070,渝北****梦网吧,106.635,29.7318
50011210000071,渝北****花网吧,106.523,29.5954
50011210000072,渝北****号网吧,106.639,29.7561
50011210000073,渝北****宏网吧,106.523,29.585
50011210000074,渝北****欣网吧,106.509,29.5957
50011210000075,渝北****上网吧,106.608,29.6916
50011210000076,渝北****馨网吧,106.601,29.6898
50011210000077,渝北****奇网吧,106.629,29.7142
50011210000078,渝北****来网吧,106.853,29.8598
50011210000079,渝北****克网吧,106.566,29.599
50011210000080,渝北****意网吧,106.657,29.7613
50011210000091,渝北****天网吧,106.611,29.6936
50011210000092,渝北****喜网吧,106.629,29.6698
50011210000095,渝北****乐网吧,106.939,29.7343
50011210000096,渝北****唐网吧,106.534,29.6084
50011210000097,渝北****烦网吧,106.611,29.6899
50011210000099,渝北****升网吧,106.637,29.7258
50011210000100,渝北****虫网吧,106.51,29.5883
50011210000101,渝北****梦网吧,106.615,29.6744
50011210000102,渝北****心网吧,106.522,29.5916
50011310000050,巴南****创网吧,106.55,29.4631
50011310000051,巴南****谊网吧,106.799,29.2521
50011310000053,巴南****密狗）,106.531,29.3868
50011310000054,巴南****欧网吧,106.529,29.39
50011310000055,巴南****牛网吧,106.543,29.4115
50011310000057,巴南****缘网吧,106.541,29.4186
50011310000058,巴南****天网吧,106.557,29.4445
50011310000059,巴南****联网吧,106.54,29.3825
50011310000060,巴南****湖网吧,106.55,29.4631
50011310000061,巴南****邦网吧,106.55,29.4631
50011310000062,巴南****聪网吧,106.531,29.3872
50011310000063,巴南****盟网吧,106.526,29.4604
50011310000064,巴南****天网吧,106.526,29.4604
50011310000065,巴南****缘网吧,106.549,29.4714
50011310000067,巴南****缘网吧,106.526,29.3875
50011310000068,巴南****悦网吧,106.556,29.4447
50011310000069,巴南****费点）,106.531,29.388
50011310000070,巴南****缘网吧,106.541,29.4169
50011310000071,巴南****浪网吧,106.758,29.378
50011310000072,巴南****咖网吧,106.577,29.4886
50011310000074,巴南****岛网吧,106.545,29.4725
50011310000075,巴南****益网吧,106.534,29.3842
50011310000076,巴南****雅网吧,106.511,29.3895
50011310000077,巴南****座网吧,106.523,29.3933
50011310000078,巴南****首网吧,106.492,29.5371
50011310000079,巴南****鸿网吧,106.526,29.3875
50011310000080,巴南****源网吧,106.556,29.4449
50011310000081,巴南****蝶网吧,106.537,29.4639
50011310000082,巴南****江网吧,106.602,29.4329
50011310000083,巴南****松网吧,106.57,29.4811
50011310000084,巴南****银网吧,106.556,29.4447
50011310000085,巴南****良网吧,106.55,29.4696
50011310000086,巴南****天网吧,106.556,29.4447
50015310000041,重庆****连网吧,106.559,29.7038
50024110000064,念念****念网吧,108.891,28.5275
50023110000001,垫江****军网吧,107.356,30.337
50015310000042,重庆****宫网吧,106.556,29.609
50023810000031,同乐****乐网吧,109.499,31.323
50011210000108,渝北****地网吧,106.605,29.6897
50011210000109,渝北****人网吧,106.61,29.694
50011210000110,渝北****云网吧,106.643,29.7759
50011210000112,渝北****尼网吧,106.802,29.7049
50011210000116,渝北****艳网吧,106.509,29.5886
50011210000117,渝北****吉网吧,106.647,29.7463
50011210000118,渝北****居网吧,106.525,29.5916
50011210000119,渝北****天网吧,106.627,29.7054
50011210000120,渝北****鑫网吧,106.633,29.7255
50011210000121,渝北****山网吧,106.616,29.6823
50011210000122,渝北****姗网吧,106.526,29.5921
50011210000123,渝北****系网吧,106.602,29.6849
50011210000124,渝北****录网吧,106.616,29.6829
50011210000125,渝北****洛网吧,106.602,29.6819
50011210000126,渝北****飞网吧,106.611,29.6932
50011210000127,渝北****聚网吧,106.51,29.5895
50011210000128,渝北****豪网吧,106.591,29.6457
50011210000129,渝北****舟网吧,106.621,29.7017
50011210000130,渝北****潮网吧,106.633,29.6717
50011210000131,渝北****瑞网吧,106.63,29.7169
50011210000132,渝北****越网吧,106.627,29.7068
50011210000133,渝北****韵网吧,106.637,29.7345
50011210000134,渝北****枫网吧,106.524,29.5963
50011210000136,渝北****跃网吧,106.601,29.6872
50011210000137,渝北****法网吧,106.638,29.7231
50011210000138,渝北****余网吧,106.939,29.7343
50011210000139,渝北****人网吧,106.605,29.6513
50011210000140,渝北****乐网吧,106.52,29.5931
50011210000141,渝北****兴网吧,106.639,29.755
50011210000142,渝北****电网吧,106.522,29.6038
50011210000143,渝北****座网吧,106.633,29.7178
50011210000144,渝北****歌网吧,106.802,29.7043
50011210000148,渝北****盟网吧,106.64,29.7427
50011210000149,渝北****秋网吧,106.639,29.7381
50011210000150,渝北****跃网吧,106.524,29.5953
50011210000151,渝北****桥网吧,106.611,29.6927
50011210000154,渝北****海网吧,106.629,29.7096
50011210000155,渝北****杰网吧,106.635,29.7431
50011210000156,渝北****雅网吧,106.621,29.7033
50011210000158,渝北****园网吧,106.611,29.6928
50011210000160,渝北****喜网吧,106.629,29.7075
50011210000161,渝北****旭网吧,106.609,29.6902
50011210000163,渝北****波网吧,106.601,29.6872
50011210000165,渝北****芯网吧,106.511,29.6054
50011210000166,渝北****豪网吧,106.638,29.7228
50024110000004,秀山****网吧）,106.667,29.5415
50024110000005,秀山****网吧）,108.998,28.449
50024110000006,秀山****网吧）,108.865,28.3929
50024110000007,秀山****网吧）,109.068,28.3863
50024110000008,秀山****网吧）,108.996,28.4514
50024110000009,秀山****网吧）,109.019,28.4517
50024110000010,秀山****网吧）,109.202,28.7531
50024110000011,秀山****网吧）,109.007,28.4422
50024110000012,秀山****网吧）,108.931,28.4225
50024110000013,秀山****网吧）,109.008,28.4593
50024110000014,秀山****网吧）,109.191,28.6858
50024110000015,秀山****网吧）,109.202,28.7531
50024110000016,秀山****网吧）,109.198,28.7456
50024110000017,秀山****网吧）,109.042,28.2679
50024110000018,秀山****网吧）,108.891,28.5275
50024110000019,秀山****网吧）,109.275,28.5014
50024110000020,秀山****网络）,109,28.4485
50024110000021,秀山****网吧）,108.994,28.4546
50024110000048,秀山****网吧）,109.012,28.4218
50024110000049,秀山****网吧）,108.892,28.5299
50024110000050,秀山****网吧）,109.042,28.2679
50024110000051,秀山****网吧）,109.188,28.4622
50024110000052,秀山****网吧）,108.918,28.4044
50024110000053,秀山****网吧）,109.001,28.441
50024110000054,秀山****网吧）,108.994,28.455
50024110000055,秀山****网吧）,109.039,28.2648
50024110000056,秀山****网吧）,109.027,28.5101
50024110000057,秀山****网吧）,109.04,28.3169
50024110000058,秀山****网吧）,109.001,28.4504
50024110000059,秀山****网吧）,109.005,28.1891
50024110000060,秀山****网吧）,108.918,28.4044
50024110000061,秀山****网吧）,108.932,28.4228
50024110000062,秀山****网吧）,109.027,28.5101
50024110000063,秀山****网吧）,106.587,29.5479
50099910000021,重庆****家网吧,106.399,29.8086
50024210000003,酉阳****络会所,108.778,28.8327
50024210000007,酉阳****络会所,108.827,28.7483
50024210000010,酉阳****络会所,108.774,28.863
50024210000014,酉阳****络会所,108.774,28.863
50024210000015,酉阳****丰网吧,108.694,28.7833
50024210000016,酉阳****友网吧,106.635,29.7318
50024210000019,酉阳****喜网吧,108.775,28.847
50024210000020,酉阳****络会所,108.776,28.8507
50023310000033,忠县****闲会所,108.04,30.2947
50023310000035,忠县****宇网吧,108.037,30.2
50023310000036,忠县****月网吧,108.044,30.2965
50023310000037,忠县****勇网吧,108.205,30.427
50023310000038,忠县****来网吧,108.041,30.2953
50023310000039,忠县****来网吧,108.13,30.2956
50023310000040,忠县****欣网吧,108.078,30.5009
50023310000041,忠县****鹰网吧,107.658,30.2836
50023310000042,忠县****人网吧,108.04,30.2984
50023310000043,忠县****话网吧,108.045,30.298
50023310000044,忠县****网络屋,108.039,30.2946
50023310000046,忠县****逢网吧,108.03,30.3062
50023310000047,忠县****屿网吧,108.054,30.3044
50023310000048,忠县****星网吧,108.205,30.427
50023310000051,忠县****尚网吧,108.043,30.2958
50023310000052,忠县****井网吧,108.081,30.5022
50023310000053,忠县****飞网吧,108.04,30.2984
50023310000054,忠县****宇网吧,107.894,30.0501
50023310000055,忠县****云网吧,107.748,30.3939
50023310000056,忠县****克网吧,108.044,30.2964
50023310000057,忠县****友网吧,107.959,30.2174
50023310000059,忠县****翰网吧,107.732,30.3081
50023310000060,忠县****云网吧,107.939,30.1332
50023310000061,忠县****日网吧,107.599,30.2447
50023310000062,忠县****发网吧,107.959,30.2174
50023310000063,忠县****空网吧,108.009,30.3837
50023310000064,忠县****林网吧,108.037,30.2
50023310000065,忠县****博网吧,108.045,30.3044
50023310000066,忠县****浪网吧,106.439,29.4091
50023310000068,忠县****缘网吧,108.203,30.427
50023310000069,忠县****泡网吧,108.08,30.5009
50023310000070,忠县****毛网吧,108.021,30.2105
50023310000071,忠县****怡网吧,107.737,30.3132
50023310000072,忠县****和网吧,108.004,30.2052
50023310000073,忠县****龙网吧,108.018,30.2082
50023410000001,开县****谷网吧,108.326,31.1545
50023410000002,开县****络世界,108.387,31.1657
50023410000003,开县****代网吧,108.389,31.2771
50023410000004,开县****络会所,108.42,31.1746
50023410000005,开县****络会所,108.401,31.168
50023410000006,开县****间网城,108.428,31.178
50023410000007,开县****络会所,108.417,31.1723
50023410000008,开县****平桥店,108.417,31.1723
50023410000009,开县****源网城,108.378,31.1641
50023410000010,开县****速网吧,108.438,31.2111
50023410000011,开县****友网吧,108.228,31.1059
50023410000012,开县****雯网吧,108.315,31.0012
50023410000013,开县****勇网吧,108.317,31.0045
50023410000014,开县****叶网吧,108.317,31.0045
50023410000015,开县****晶网吧,108.254,30.9659
50024110000022,秀山****网吧）,109.001,28.4504
50024110000023,秀山****网吧),106.53,29.3876
50024110000025,秀山****网吧）,109.002,28.454
50024110000026,秀山****网吧）,109.061,28.611
50024110000027,秀山****网吧）,108.986,28.4582
50024110000028,秀山****网吧）,109.005,28.4297
50024110000029,秀山****网吧）,108.971,28.3009
50024110000030,秀山****网吧）,108.814,28.332
50024110000031,秀山****网吧）,109.298,28.5745
50024110000032,秀山****宏网吧,108.947,28.4582
50024110000033,秀山****网吧）,109.006,28.4492
50024110000034,秀山****网吧）,109.001,28.4504
50024110000035,秀山****网吧）,108.931,28.4225
50024110000036,秀山****网吧）,109.005,28.1914
50024110000037,秀山****网吧）,109.192,28.5293
50024110000038,秀山****网吧）,108.892,28.5299
50024110000039,秀山****网吧）,108.994,28.455
50024110000040,秀山****网吧）,108.892,28.5299
50024110000041,秀山****网吧）,109.001,28.4504
50024110000042,秀山****网吧）,109,28.4497
50024110000043,秀山****网吧）,109.003,28.4479
50024110000045,秀山****网吧）,109.02,28.4508
50024110000047,秀山****网吧）,109.025,28.4983
50024210000006,酉阳****哥网吧,108.743,28.8799
50023210000009,武隆****浪网吧,106.464,29.5646
50015310000044,永驰****驰网吧,106.474,29.64
50024210000012,酉阳****龙会所,108.774,28.8615
50010510000122,江北****特网吧,106.57,29.5947
50023710000037,巫山****龙网吧,110.116,30.9308
50023710000038,巫山****友网吧,109.887,31.0811
50023710000039,巫山****代网吧,109.887,31.0811
50023710000040,巫山****浪网吧,109.827,31.258
50023710000042,巫山****尚网吧,109.915,31.3444
50023710000043,巫山****新网吧,109.827,31.258
50023710000044,巫山****奇网吧,109.859,30.9593
50023710000045,巫山****语网吧,109.655,30.8909
50023710000046,巫山****弟网吧,109.887,31.0863
50023710000047,巫山****阳网吧,109.858,30.9639
50023710000048,巫山****燕网吧,110.096,31.2098
50023710000049,巫山****缘网吧,109.661,30.869
50023710000052,巫山****清网吧,109.856,30.9571
50023710000053,巫山****蚁网吧,109.879,31.075
50023710000054,巫山****涛网吧,109.829,31.2608
50023710000055,巫山****煌网吧,109.888,31.0867
50023710000056,巫山****来网吧,109.89,31.0878
50023810000003,巫溪****博网吧,109.636,31.4033
50023810000004,巫溪****风网吧,109.626,31.3984
50023810000006,巫溪****会所）,109.621,31.3997
50023810000007,巫溪****风网城,109.614,31.4002
50023810000008,巫溪****代网吧,109.624,31.3978
50023810000009,巫溪****络会所,109.621,31.3997
50023810000011,巫溪****往网吧,109.635,31.402
50023810000012,巫溪****百度）,109.621,31.3997
50023810000013,巫溪****络会所,109.625,31.3974
50011210000167,渝北****光网吧,106.533,29.5948
50011210000168,渝北****友网吧,106.511,29.5892
50011210000169,渝北****座网吧,106.495,29.5976
50011210000170,渝北****容网吧,106.697,29.8471
50011210000171,渝北****风网吧,106.631,29.7112
50011210000172,渝北****速网吧,106.645,29.7235
50011210000174,渝北****风网吧,106.517,29.5862
50011210000176,渝北****南网吧,106.624,29.6936
50011210000179,渝北****人网吧,106.605,29.6725
50011210000180,渝北****村网吧,106.517,29.6044
50011210000181,渝北****湖网吧,106.605,29.6728
50011210000184,渝北****龙网吧,106.636,29.7319
50011210000185,渝北****星网吧,106.603,29.69
50011210000187,渝北****熙网吧,106.802,29.7049
50011210000188,渝北****界网吧,106.635,29.7226
50011210000189,渝北****锋网吧,106.519,29.5891
50011210000190,渝北****派网吧,106.636,29.7387
50011210000192,渝北****鸣网吧,106.603,29.6874
50011210000195,渝北****瑞网吧,106.633,29.7175
50011210000196,渝北****典网吧,106.65,29.7577
50011210000198,渝北****致网吧,106.644,29.7455
50011210000199,渝北****月网吧,106.604,29.6948
50011210000200,渝北****桥网吧,106.617,29.672
50011210000208,渝北****来网吧,106.605,29.6734
50011310000001,巴南****马网吧,106.542,29.3824
50011310000002,巴南****浪网吧,106.55,29.4631
50011310000003,巴南****下网吧,106.556,29.4448
50011310000004,巴南****梁网吧,106.54,29.4333
50011310000005,巴南****泉网吧,106.829,29.3949
50011310000006,巴南****狼网吧,106.545,29.4719
50011310000007,巴南****语网吧,106.535,29.4668
50011310000008,巴南****源网吧,106.758,29.378
50011310000009,巴南****依网吧,106.556,29.4448
50011310000010,巴南****静网吧,106.845,29.5785
50011310000011,巴南****天网吧,106.713,29.4644
50011310000012,巴南****璇网吧,106.568,29.4084
50011310000013,巴南****臣网吧,106.531,29.388
50011310000014,巴南****车网吧,106.549,29.4721
50024210000042,酉阳****归网吧,108.973,28.7675
50024210000043,酉阳****骄网吧,108.98,28.7671
50024210000045,酉阳****品网吧,108.963,28.9099
50024210000046,酉阳****沿网吧,108.621,28.5319
50024210000047,酉阳****缘网吧,108.959,28.8969
50024210000049,酉阳****印网吧,109.168,29.0967
50015110000068,高新****力网吧,106.497,29.5256
50015110000075,高新****费点）,106.501,29.539
50015110000079,高新****力网吧,106.496,29.5363
50015110000082,高新****佳网吧,106.481,29.5266
50015110000083,高新****海网吧,106.489,29.5352
50015110000084,高新****体网吧,106.517,29.5355
50015110000086,高新****会所）,106.494,29.53
50015110000088,高新****乐部）,106.491,29.534
50015110000091,高新****会所）,105.584,29.4052
50015110000102,高新****费点）,106.484,29.5375
50015310000002,北部****婷网吧,106.559,29.6694
50015310000003,北部****嘉网吧,106.593,29.6932
50015310000004,北部****蓼网吧,106.5,29.6869
50015310000005,北部****舟网吧,106.585,29.6886
50015310000006,亚联****会所）,106.576,29.6463
50015310000007,北部****兴网吧,106.571,29.654
50011310000015,巴南****琳网吧,106.556,29.4448
50011310000016,巴南****馨网吧,106.519,29.3927
50011310000017,巴南****速网吧,106.531,29.3866
50011310000018,巴南****木网吧,106.55,29.4723
50011310000019,巴南****际网吧,106.55,29.4607
50011310000020,巴南****树网吧,106.568,29.4747
50011310000021,巴南****林网吧,106.577,29.4886
50011310000022,巴南****会网吧,106.475,29.5753
50011310000023,巴南****苑网吧,106.55,29.4696
50011310000024,巴南****柯网吧,106.554,29.4456
50011310000025,巴南****锐网吧,106.575,29.4915
50011310000026,巴南****白网吧,106.536,29.3853
50011310000027,巴南****乐网吧,106.659,29.3493
50011310000028,巴南****君网吧,106.57,29.4811
50011310000029,巴南****府网吧,106.542,29.4722
50011310000030,巴南****秀网吧,106.527,29.3855
50011310000032,巴南****橙网吧,106.612,29.3945
50011310000033,巴南****浩网吧,106.577,29.4886
50011310000034,巴南****着网吧,106.547,29.4521
50011310000036,巴南****韵网吧,106.466,29.5645
50011310000037,巴南****蓝网吧,106.615,29.3905
50011310000038,巴南****角网吧,106.623,29.452
50011310000039,巴南****阁网吧,106.573,29.287
50011310000040,巴南****俊网吧,106.505,29.3871
50011310000041,巴南****人网吧,106.758,29.378
50011310000043,巴南****维网吧,106.526,29.3917
50011310000044,巴南****网网吧,106.511,29.3918
50011310000045,巴南****顺网吧,106.518,29.3919
50011310000047,巴南****择网吧,106.524,29.3903
50011310000048,巴南****瑞网吧,106.551,29.471
50011310000049,巴南****飚网吧,106.526,29.3875
50011510000029,长寿****光网吧,107.097,29.8588
50011510000034,长寿****莱网吧,107.073,29.8306
50011510000035,长寿****络会所,107.092,29.8631
50010110000002,万州****篱网吧,106.464,29.4942
50010110000003,万州****网吧,108.384,30.8326
50010110000006,万州****昆网吧,108.413,30.7101
50010110000007,万州****潮网吧,108.399,30.7897
50010110000010,万州****限网吧,108.392,30.8048
50011510000069,长寿****航网吧,107.077,29.8363
50011510000070,长寿****道网吧,107.074,29.8376
50011510000071,长寿****岸网吧,107.08,29.8362
50011510000072,长寿****友网吧,107.026,29.806
50011510000073,长寿****围网吧,107.072,29.8131
50011510000074,长寿****兵网吧,107.094,29.8627
50011510000076,长寿****齐网吧,106.854,29.8577
50011110000011,重庆****帆网吧,105.801,29.4972
50011110000012,重庆****秀网吧,105.802,29.4956
50011110000017,重庆****兰网吧,105.804,29.501
50011110000018,重庆****辉网吧,105.776,29.4915
50011110000020,重庆****浪网吧,105.774,29.4928
50011110000021,重庆****子网吧,105.777,29.4939
50011110000022,重庆****鼎网吧,105.781,29.4932
50011410000001,黔江****线网吧,108.795,29.5313
50011410000002,黔江****太网吧,108.802,29.5275
50011410000003,黔江****林网吧,108.795,29.5313
50011410000004,黔江****吧三店,108.78,29.5365
50011410000005,黔江****浪网吧,108.795,29.5313
50011410000006,黔江****吧一店,108.789,29.532
50011410000007,黔江****友网吧,108.795,29.5313
50011410000008,黔江****场店),108.795,29.5289
50011410000009,黔江****忆网吧,108.791,29.5332
50011410000010,黔江****腾网吧,108.793,29.5302
50023710000013,巫山****喜网吧,109.887,31.0811
50023710000014,巫山****空网吧,109.733,31.2272
50023710000015,巫山****缘网吧,109.887,31.0815
50023710000016,巫山****州网吧,109.887,31.0811
50023710000018,巫山****兴网吧,109.893,31.082
50023710000019,巫山****源网吧,109.719,31.2247
50023710000020,巫山****约网吧,109.904,31.0989
50023710000021,巫山****人网吧,109.737,30.8575
50023710000022,巫山****扬网吧,109.892,31.0916
50023710000023,巫山****亿网吧,109.883,31.0836
50023710000025,巫山****奇网吧,109.888,31.0808
50023710000026,巫山****天网吧,109.887,31.0844
50023710000027,巫山****龙网吧,110.094,31.2073
50023710000028,巫山****通网吧,109.889,31.0823
50023710000029,巫山****龙网吧,109.661,30.869
50023710000030,巫山****岛网吧,109.886,31.0804
50023710000031,巫山****越网吧,109.888,31.0807
50023710000032,巫山****英网吧,109.89,31.0827
50023710000033,巫山****网吧）,109.887,31.0803
50023710000034,巫山****品网吧,109.886,31.0788
50023710000035,巫山****龙网吧,110.106,31.1354
50023710000036,巫山****缘网吧,109.742,30.9372
50010210000080,重庆****缘网吧,107.427,29.7037
50010210000082,重庆****恋网吧,107.154,29.7123
50010210000084,重庆****豪网吧,107.263,29.7652
50010210000085,重庆****番网吧,107.411,29.7011
50010210000089,重庆****红网吧,107.403,29.7098
50010210000092,重庆****力网吧,107.09,29.8542
50010210000096,重庆****线网吧,107.265,29.7642
50010210000097,重庆****笛网吧,107.4,29.7098
50010210000099,重庆****光网吧,107.403,29.7065
50010210000100,重庆****空网吧,107.393,29.7066
50011010000001,重庆****通网吧,106.934,28.9564
50011010000004,重庆****华网吧,106.829,28.9278
50011010000007,重庆****游网吧,106.89,28.9499
50011010000009,重庆****心网吧,106.932,28.9551
50011010000010,重庆****剑网吧,106.933,28.9666
50011010000011,重庆****逸网吧,106.94,28.9508
50011010000013,重庆****三网吧,106.889,28.9485
50011010000015,重庆****星网吧,106.934,28.9629
50011010000016,重庆****静网吧,106.937,28.9615
50011010000017,重庆****网城),106.936,28.9571
50011010000023,重庆****珠网吧,106.82,28.8216
50011010000024,重庆****云网吧,106.889,28.9501
50011010000028,重庆****秋网吧,106.789,28.838
50011010000031,重庆****创网吧,106.931,28.9672
50023810000014,巫溪****谐网吧,109.455,31.3342
50023810000015,巫溪****网络）,108.906,31.4383
50023810000017,巫溪****网城）,109.624,31.3978
50023810000018,巫溪****空网吧,109.528,31.4046
50023810000019,巫溪****络会所,109.626,31.3984
50023810000020,巫溪****越网吧,109.494,31.323
50023810000030,凤凰****络会所,109.528,31.4046
50023810000036,巫溪****远网吧,109.627,31.3969
50024010000001,石柱****山网吧,108.121,30.0023
50024010000002,石柱****心网吧,108.123,29.9951
50024010000003,石柱****云网吧,108.134,29.9998
50024010000004,石柱****字网吧,108.124,30.0056
50024010000005,石柱****远网吧,108.117,30.0067
50024010000006,石柱****情深）,108.118,29.9994
50024010000007,石柱****网吧),108.305,30.0996
50024010000008,石柱****越网吧,106.509,29.7888
50024010000009,石柱****常网吧,108.206,30.4295
50024010000010,石柱****桐网吧,108.123,29.9951
50024010000011,石柱****恒网吧,108.4,30.2483
50024010000012,石柱****天网吧,108.229,30.4178
50024010000013,石柱****运网吧,108.221,30.4054
50024010000014,石柱****兴网吧,108.221,30.4054
50024010000015,石柱****语网吧,108.063,29.9392
50024110000001,秀山****网吧）,108.89,28.5269
50024110000002,秀山****网吧）,108.999,28.4501
50024110000003,秀山****网吧）,109.011,28.4504
50024210000022,酉阳****居网吧,108.776,28.8507
50024210000023,酉阳****热网吧,108.774,28.8615
50024210000011,酉阳****络会所,108.599,28.735
50024210000025,酉阳****潮网吧,108.782,28.8567
50024210000026,酉阳****络会所,108.775,28.847
50024210000027,酉阳****光网吧,108.774,28.8615
50024210000028,酉阳****络会所,108.909,28.5511
50022510000009,重庆****顺网吧,105.772,29.5673
50024210000030,酉阳****闲网吧,108.82,28.7526
50024210000035,酉阳****络会所,108.777,28.8546
50024210000036,酉阳****络会所,108.98,28.7671
50024210000039,酉阳****络会所,108.973,28.7675
50024210000041,酉阳****缘网吧,108.969,28.7864
50023610000004,奉节****语网吧,109.316,30.9185
50023610000005,奉节****光网吧,109.456,30.6624
50023610000008,奉节****)网吧,109.512,31.0421
50023610000010,奉节****洲网吧,109.36,31.1668
50023610000012,奉节****乐网吧,106.524,29.5149
50023610000015,奉节****浪网吧,109.47,31.0223
50023610000016,奉节****林网吧,109.47,31.0223
50023610000017,奉节****乐网吧,109.445,31.1126
50023610000020,奉节****王网吧,109.635,31.0941
50024210000032,酉阳****亚网咖,108.775,28.8488
50023610000024,奉节****腾网吧,109.556,31.05
50023610000025,奉节****）网吧,109.467,31.028
50023610000027,奉节****斯网吧,109.561,31.0492
50023610000028,奉节****空网吧,109.474,31.0288
50023610000029,奉节****潮网吧,109.481,30.9082
50023610000031,奉节****615,109.482,31.0265
50010610009055,沙坪****街网吧,106.488,29.5477
50023610000034,奉节****梦网吧,109.388,31.0321
50023610000039,奉节****宏网吧,109.556,31.0502
50023610000042,奉节****浪网吧,109.21,31.131
50023610000043,奉节****友网吧,109.4,31.0309
50023610000045,奉节****)网吧,109.265,31.3061
50023610000046,奉节****进网吧,109.465,31.0305
50023610000052,奉节****哥网吧,109.445,31.1126
50023610000053,奉节****来网吧,109.122,31.2412
50023610000054,奉节****)网城,109.466,31.0271
50023610000055,奉节****网网吧,109.381,31.0302
50023610000059,奉节****龙网吧,109.21,31.131
50023610000061,奉节****和网吧,109.479,31.0251
50023610000062,奉节****民网吧,109.356,30.9586
50023610000063,奉节****会所）,109.356,30.9586
50023610000064,奉节****玉网吧,109.169,30.718
50023610000066,奉节****正网吧,109.169,30.718
50023610000068,奉节****空网吧,109.475,31.0264
50023710000001,巫山****越网吧,109.733,31.2272
50023710000002,巫山****河网吧,110.047,30.9389
50023710000003,巫山****月网吧,109.661,30.869
50023710000004,巫山****谷网吧,109.887,31.0811
50023710000005,巫山****通网吧,109.887,31.0811
50023710000006,巫山****新网吧,109.886,31.0788
50023710000007,巫山****迹网吧,109.887,31.0803
50023710000008,巫山****晶网吧,109.904,31.099
50023710000010,巫山****典网吧,109.873,31.081
50023710000011,巫山****市网吧,109.661,30.869
50023710000012,巫山****点网吧,109.887,31.0811
50023410000016,开县****蚁网吧,108.417,31.1723
50023410000017,开县****深网吧,108.479,31.4182
50023410000018,开县****网吧),108.403,31.1762
50023410000019,开县****红网吧,108.431,31.094
50023410000020,开县****络驿站,108.419,31.1795
50023410000021,开县****络会所,106.554,29.565
50023410000022,开县****下网吧,108.387,31.169
50023410000023,开县****络会所,108.406,31.1767
50023410000025,开县****帝网城,108.406,31.1757
50023410000026,开县****翔网吧,108.423,31.1756
50023410000027,开县****河网城,108.417,31.1734
50023410000028,开县****众网吧,108.41,31.1788
50023410000029,开县****都网吧,108.435,31.0886
50023410000030,开县****络驿站,108.399,31.1699
50023410000031,开县****络会所,108.426,31.1929
50023410000032,开县****络会所,108.398,31.1719
50023410000033,开县****游网吧,108.317,31.0045
50023410000034,开县****州网城,108.407,31.1738
50023410000035,开县****缘网吧,108.228,31.1062
50023410000036,开县****园网吧,108.232,31.1069
50023410000037,开县****怡网吧,108.387,31.1666
50023410000038,开县****智网吧,108.179,30.9164
50023410000039,开县****友网吧,108.306,31.3494
50023410000040,开县****络驿站,108.411,31.177
50023410000041,开县****圣网吧,108.467,31.274
50023410000042,开县****络会所,108.412,31.1756
50023410000043,开县****空网城,108.406,31.1729
50023410000044,开县****亮网吧,108.143,31.0455
50023410000045,开县****鹰网吧,108.144,31.1806
50023410000046,开县****章网城,108.42,31.1779
50023410000047,开县****语网吧,108.527,31.3699
50023410000048,开县****威网吧,108.408,31.1748
50023410000049,开县****都网络,108.406,31.1729
50023410000052,开县****新网吧,108.132,31.0427
50023410000053,开县****点网吧,108.179,30.9164
50023410000054,开县****觉网吧,108.232,31.1069
50023410000055, 开****代网吧,108.398,31.1719
50023410000056,开县****代网吧,108.141,31.1825
50023410000058,开县****络会所,108.423,31.1745
50023410000059,开县****洋网吧,108.491,31.2999
50023410000060,开县****络会所,108.389,31.2771
50023410000061, 开****弟网吧,108.474,31.2697
50023410000062,开县****络会所,108.098,31.0877
50023410000063,开县****风网吧,108.531,31.3734
50023410000064, 开****友网吧,108.534,31.3728
50023410000065,开县****络会所,108.389,31.2771
50023410000066,开县****络驿站,108.386,31.1645
50023410000067,开县****知网吧,108.452,31.5133
50023410000068,开县****旗舰店,108.417,31.1723
50023410000069,开县****络会所,108.378,31.166
50023410000070,开县****鸟网吧,108.232,31.1069
50023410000071,开县****星网吧,108.493,31.2987
50023410000072,开县****橙网吧,108.317,31.0045
50023510000003,云阳****缘网吧,108.878,30.8097
50023510000006,云阳****春雅园,108.944,31.1626
50023510000008,云阳****络会所,108.691,30.947
50023510000009,云阳****动网吧,108.716,30.9279
50023510000011,云阳****闲会所,108.863,31.0424
50023510000016,云阳****谷网吧,108.705,30.935
50023510000019,云阳****风网吧,108.702,30.9403
50023510000020,云阳****星网吧,108.864,31.1336
50023510000021,云阳****强网吧,108.718,30.9286
50023510000022,云阳****园网吧,108.719,30.9286
50023510000024,云阳****深网吧,109.089,30.9455
50023510000025,云阳****闲会所,108.713,30.9323
50023510000026,云阳****络会所,108.712,30.9376
50023510000031,云阳****缘网吧,108.718,30.9282
50023510000032,云阳****游网吧,108.714,30.9347
50023510000034,云阳****力网吧,108.721,30.9104
50023510000037,云阳****了网吧,108.758,30.8746
50023510000038,云阳****缘网吧,108.827,31.1211
50023510000040,云阳****发网吧,108.803,31.2278
50023510000041,云阳****宁网吧,109.032,30.9894
50023510000043,云阳****欣网吧,108.986,31.1907
50011110000006,重庆****乐网吧,105.774,29.4933
50011110000008,重庆****桐网吧,105.777,29.4926
50011110000010,重庆****翔网吧,105.776,29.4927
50011510000037,长寿****雅网吧,107.073,29.8306
50011510000038,长寿****迪网吧,107.087,29.845
50011510000039,长寿****尚网吧,107.076,29.8347
50011510000041,长寿****宇网吧,107.074,29.8371
50011510000043,长寿****宾网吧,107.077,29.8348
50011510000044,长寿****龙网吧,107.08,29.8346
50011510000045,长寿****岸网吧,107.088,29.852
50011510000046,长寿****宇网吧,107.012,29.8271
50011510000048,长寿****人网吧,107.009,29.8291
50011510000049,长寿****下网吧,107.081,29.8371
50011510000050,长寿****兴网吧,107.147,29.9605
50011510000051,长寿****泰网吧,107.026,29.8056
50011510000053,长寿****风网吧,107.016,29.8264
50011510000054,长寿****飞网吧,107.147,29.9605
50011510000055,长寿****点网吧,107.006,29.829
50011510000057,长寿****生网吧,107.028,29.8061
50011510000059,长寿****胜网吧,107.077,29.8409
50011510000062,长寿****达网吧,106.964,30.0072
50011510000065,长寿****网吧,107.013,29.8268
50011510000066,长寿****佳网吧,107.073,29.8306
50011510000067,长寿****零网吧,107.072,29.8131
50011410000011,黔江****尚网吧,108.715,29.441
50011410000013,黔江****山店),108.772,29.5353
50011410000014,黔江****天网吧,108.788,29.533
50011410000015,黔江****胜网吧,108.787,29.5333
50011410000016,黔江****享网吧,108.793,29.5297
50011410000017,黔江****珠网吧,108.799,29.5274
50011410000018,黔江****川网吧,106.569,29.5647
50011410000019,黔江****吧二店,108.782,29.5362
50011410000020,黔江****镇网吧,108.78,29.3036
50011410000021,黔江****舞网吧,108.78,29.3036
50011410000023,黔江****鹏网吧,108.725,29.1388
50011410000024,黔江****江网吧,108.725,29.1388
50011410000025,黔江****城网视,108.789,29.3936
50011410000026,黔江****阳网吧,108.821,29.5099
50011410000027,黔江****点网吧,108.715,29.441
50011410000028,黔江****鹏网吧,108.839,29.5402
50011410000029,黔江****畅网吧,108.698,29.3952
50011410000030,黔江****友网吧,108.673,29.3319
50011410000031,黔江****逸网吧,108.612,29.7723
50011410000032,黔江****习网吧,108.838,29.4192
50011410000033,黔江****家网吧,108.584,29.4994
50011410000034,黔江****莲网吧,108.715,29.441
50011410000035,黔江****达网吧,108.863,29.2872
50011410000036,黔江****洋网吧,108.839,29.5404
50011410000037,黔江****创网吧,108.715,29.441
50011410000039,黔江****盛网吧,108.781,29.3059
50011410000040,黔江****凡网吧,108.554,29.6226
50011410000041,黔江****吧联盟,108.6,29.1428
50011410000042,黔江****宇网吧,108.789,29.5384
50011410000043,黔江****伟网吧,108.79,29.5229
50011410000044,黔江****汇网吧,108.805,29.5292
50011410000045,黔江****阳网吧,108.839,29.5404
50011410000046,黔江****智网吧,108.715,29.441
50011410000047,黔江****祥龙店,108.792,29.5299
50011510000001,长寿****座网吧,106.854,29.8577
50011510000002,长寿****宇网吧,107.079,29.8403
50011510000003,长寿****邸网吧,107.081,29.837
50011510000004,长寿****蒙网吧,107.084,29.8457
50011510000005,长寿****科网吧,107.072,29.8131
50011510000006,长寿****星网吧,107.08,29.8363
50011510000007,长寿****颗网吧,107.034,29.9047
50011510000008,长寿****枸网吧,107.081,29.837
50011510000009,长寿****桃花店,107.091,29.8648
50011510000010,长寿****义网吧,107.147,29.9605
50011510000012,长寿****思网吧,107.225,29.8968
50011510000013,长寿****兴网吧,107.094,29.8627
50011510000015,长寿****雨网吧,107.216,29.9627
50011510000016,长寿****红网吧,107.194,30.0199
50011510000018,长寿****琪网吧,107.216,29.9614
50011510000019,长寿****草网吧,107.216,30.1405
50011510000020,长寿****击网吧,107.073,29.8306
50011510000021,长寿****卡网吧,107.074,29.8429
50011510000022,长寿****舟网吧,107.089,29.8818
50011510000023,长寿****吧网吧,107.008,29.8288
50011510000024,长寿****谷网吧,106.854,29.8577
50011510000026,长寿****涛网吧,107.08,29.8346
50011510000027,长寿****龙网吧,107.216,29.9627
50011510000028,长寿****家网吧,107.007,29.8284
50010110000164,万州****馨网吧,106.464,29.4942
50010110000168,万州****微网吧,108.416,30.7727
50010110000169,万州****煌网吧,108.379,30.8079
50010110000170,万州****河网吧,108.39,30.8134
50010110000171,万州****森网吧,108.381,30.8719
50010110000172,万州****苑网吧,108.366,30.86
50010110000174,万州****煌巢）,108.402,30.8316
50010110000175,万州****龙网吧,106.464,29.4942
50010110000177,万州****晟网吧,108.384,30.8324
50010110000178,万州****实网吧,108.379,30.8312
50010110000179,万州****魂网吧,108.359,30.8312
50010110000183,万州****之行）,108.025,30.7763
50010110000185,万州****A城),108.387,30.8029
50010110000188,万州****言网吧,108.918,28.4044
50010110000190,万州****者网吧,108.398,30.8336
50010110000191,万州****才网吧,108.385,30.8047
50010110000192,万州****度网吧,108.376,30.8519
50010110000193,万州****网城）,108.447,30.7665
50010110000011,万州****来网吧,106.464,29.4942
50010110000012,万州****曦网吧,108.388,30.8096
50010110000013,万州****星网吧,108.402,30.7611
50010110000014,万州****觉网吧,108.424,30.686
50010110000017,万州****情网吧,108.389,30.8136
50010110000019,万州****云网吧,108.39,30.8028
50010110000021,万州****铛网吧,106.464,29.4942
50010110000022,万州****欧网吧,108.386,30.8132
50010110000023,万州****B城),108.452,30.7697
50010110000024,万州****阳网吧,108.262,30.5104
50010110000026,万州****散网吧,108.397,30.8307
50010110000027,万州****B城),108.39,30.8028
50010110000032,万州****涛网吧,108.413,30.8384
50010110000034,万州****车网吧,107.969,30.8068
50010110000035,万州****驰网吧,106.464,29.4942
50010110000036,万州****神网吧,108.388,30.8161
50010110000037,万州****都网吧,108.384,30.8198
50010110000038,万州****F城),108.465,30.7823
50010110000039,万州****维安),108.387,30.8029
50010110000040,万州****手指),108.377,30.8516
50010110000042,万州****A城),108.707,30.9359
50010110000043,万州****化网吧,108.29,30.6729
50010110000045,万州****下网吧,108.396,30.7813
50010110000047,万州****村网吧,108.413,30.7101
50010110000049,万州****月网吧,108.163,30.7682
50010110000050,万州****华网吧,108.399,30.7897
50010110000051,万州****源网吧,109.008,28.4445
50010110000054,万州****星网吧,108.455,30.7613
50010110000055,万州****雪网吧,108.389,30.8098
50010110000056,万州****莲网吧,108.399,30.7897
50010110000057,万州****新闻）,108.424,30.686
50010110000059,万州****桥网吧,108.417,30.7709
50010110000060,万州****阳网吧,108.387,30.8145
50010110000061,万州****云网吧,108.378,30.8079
50010110000062,万州****火网吧,106.464,29.4942
50010110000064,万州****网吧),108.382,30.8205
50010110000065,万州****源网吧,108.378,30.8762
50010110000066,万州****G城）,106.488,29.4785
50010110000067,万州****航网吧,108.496,30.7731
50010110000069,万州****道网吧,108.465,30.7823
50010110000071,万州****琪网吧,106.464,29.4942
50010110000072,万州****路网吧,108.093,30.7236
50010110000073,万州****功网吧,108.274,30.8201
50010110000074,万州****飞网吧,108.399,30.7897
50010110000076,万州****文网吧,108.616,30.6635
50010110000078,万州****海网吧,106.464,29.4942
50010110000079,万州****峰网吧,108.382,30.7572
50010110000080,万州****指网吧,108.384,30.8158
50010110000081,万州****风网吧,108.385,30.8157
50010810000140,南岸****3网吧,106.57,29.5344
50011810000145,亚联****凰网吧,105.937,29.3241
50011810000108,重庆****横网吧,105.922,29.3623
50011810000109,重庆****路网吧,105.93,29.371
50011810000141,永川****吧A区,105.894,29.3719
50022810000040,梁平****宏网吧,107.689,30.6629
50022810000041,梁平****宛网吧,107.778,30.6678
50022810000042,梁平****人网吧,107.808,30.6782
50022910001001,城口****网网吧,108.671,31.9512
50022910001002,城口****家网吧,108.668,31.9503
50022910001003,城口****日网吧,108.671,31.9512
50022910001004,城口****游网吧,108.668,31.9506
50022910001006,城口****云网吧,108.675,31.9507
50022910001007,城口****居网吧,108.674,31.9543
50022910001008,城口****网吧）,108.671,31.9512
50022910001009,重庆****网吧）,108.673,31.9544
50022910001010,城口****奇网吧,108.673,31.9536
50022910001011,城口****星网吧,106.543,29.4911
50023010000001,丰都****乐网吧,107.738,29.8761
50023010000003,丰都****家网吧,107.844,30.1003
50023010000004,丰都****子网吧,107.998,29.8437
50023010000005,丰都****动网吧,107.743,29.8731
50023010000006,丰都****圆网吧,106.378,29.6367
50023010000007,丰都****昌网吧,107.73,29.8686
50023010000008,丰都****休闲吧,107.707,29.8788
50023010000009,丰都****代网吧,107.995,29.843
50023010000010,丰都****村网吧,107.983,29.9738
50023010000012,丰都****兴网吧,107.935,29.8132
50023010000013,丰都****间网吧,107.615,29.8357
50023010000014,丰都****达网吧,107.873,30.025
50023010000015,丰都****纪网吧,107.707,29.8773
50024210000052,酉阳****蕾网吧,109.067,29.2901
50024210000053,酉阳****志网吧,108.556,28.7786
50024210000055,酉阳****宇网吧,108.404,28.8875
50024210000056,酉阳****蓝网吧,108.621,28.5319
50024210000057,酉阳****宇网吧,109.137,28.9768
50024210000059,酉阳****毛网吧,108.359,28.9133
50024210000060,酉阳****潮网吧,108.361,28.9321
50024210000062,酉阳****学网吧,108.82,28.7526
50024210000063,酉阳****百网吧,108.82,28.7526
50024210000064,酉阳****国网吧,109.135,28.8964
50024210000065,酉阳****务会所,108.808,29.0574
50024310000001,彭水****言网吧,108.066,29.1292
50024310000002,重庆****越网吧,108.166,29.3
50024310000003,彭水****游网吧,108.168,29.2915
50024310000005,彭水****朝网吧,108.168,29.2915
50024310000006,彭水****光网吧,108.171,29.2971
50024310000007,彭水****松网城,108.171,29.2954
50024310000008,彭水****达网吧,108.074,29.4005
50024310000010,彭水****尼网吧,108.172,29.3028
50024310000011,彭水****幻网吧,108.166,29.3
50024310000015,彭水****鑫网吧,108.173,29.3009
50024310000017,彭水****深网吧,108.273,29.3596
50024310000018,彭水****生网吧,108.171,29.3027
50011810000142,重庆****潮网吧,105.932,29.3666
50011810000143,重庆****龙网吧,106.534,29.5906
50011910000001,南川****地网吧,107.104,29.1584
50011910000002,南川****网吧),107.108,29.1636
50011910000003,南川****会所）,107.116,29.1581
50011910000004,南川****沙龙),107.105,29.1598
50011910000005,南川****网吧）,107.304,29.2595
50011910000006,南川****网吧）,107.122,29.311
50011910000007,南川****人网吧,107.116,29.1569
50011910000008,南川****网吧）,107.178,29.1417
50011910000009,南川****会所）,107.105,29.1598
50011910000011,南川****龙网吧,106.996,29.0867
50011910000013,南川****虫网吧,107.114,29.1548
50011910000014,南川****来网吧,107.303,29.259
50011910000015,南川****源网吧,107.104,29.1604
50011910000016,南川****闲吧）,107.111,29.1576
50011910000017,南川****下网吧,107.114,29.1548
50011910000018,南川****造网吧,107.103,29.164
50011910000019,南川****族网吧,107.178,29.1417
50011910000020,南川****网吧）,107.102,29.1645
50011810000110,重庆****祥网吧,105.858,29.0188
50011810000112,（加****楼B区,105.906,29.3545
50011810000113,永川****华网吧,105.894,29.3719
50011810000115,重庆****力网吧,105.939,29.3524
50011810000116,永川****川网城,105.909,29.3564
50011810000117,永川****街网吧,105.907,29.3524
50011810000120,重庆****居网吧,105.929,29.358
50011810000122,重庆****荣网吧,105.904,29.3493
50011810000123,永川****下网吧,105.894,29.3719
50011810000124,重庆****华网吧,105.897,29.3553
50011810000125,重庆****麦网吧,105.88,29.2965
50011810000127,永川****吧B区,105.894,29.3719
50011810000128,重庆****龙网吧,105.894,29.3719
50011810000129,重庆****捷网吧,105.884,29.2481
50011810000131,（加****吧C区,105.894,29.3719
50011810000132,永川****网吧),105.909,29.3479
50011810000133,重庆****合网吧,105.899,29.3593
50011810000135,永川****嘉网吧,105.969,29.2473
50011810000136,永川****力网吧,105.94,29.3583
50011810000137,重庆****市网吧,105.889,29.3966
50011810000138,重庆****直营店,105.937,29.3592
50011810000139,重庆****曼网吧,105.897,29.3606
50011810000140,永川****网网吧,105.935,29.3641
50010110000194,万州****城网吧,108.376,30.8496
50010110000195,万州****驹网吧,108.645,30.6151
50010110000200,万州****喜网吧,107.968,30.8135
50010110000201,万州****网吧,108.351,30.7148
50010110000202,万州****佳网吧,107.967,30.8136
50010210000002,重庆****隙网吧,107.396,29.7045
50010210000003,重庆****结网吧,107.405,29.7005
50010210000005,重庆****红网吧,107.46,29.5455
50010210000006,重庆****正网吧,107.339,29.7114
50010210000007,重庆****力网吧,107.489,29.5541
50010210000008,重庆****博网吧,107.46,29.7872
50010210000009,重庆****月网吧,107.303,29.7149
50010210000010,重庆****重网吧,107.404,29.7061
50010210000012,重庆****浪网吧,107.397,29.71
50010210000013,重庆****源网吧,107.461,29.5432
50010210000016,重庆****得网吧,107.403,29.7065
50010210000017,重庆****业网吧,107.274,29.7566
50010210000018,重庆****麟网吧,107.401,29.7031
50010210000019,重庆****间网吧,107.406,29.7047
50010210000020,重庆****智网吧,107.061,29.6593
50010210000021,重庆****君网吧,107.305,29.7435
50010210000022,重庆****山网吧,107.406,29.7067
50010210000023,重庆****云网吧,108.384,30.8197
50010210000024,重庆****林网吧,107.41,29.71
50010210000025,重庆****网吧,107.399,29.7146
50010210000027,重庆****丰网吧,107.401,29.7141
50010210000028,重庆****铭网吧,107.482,29.9039
50010210000029,重庆****浪网吧,107.39,29.714
50010210000030,重庆****米网吧,107.406,29.7155
50010210000032,重庆****缘网吧,107.369,29.6673
50010210000033,重庆****春网吧,107.407,29.7029
50010210000034,重庆****笋网吧,107.408,29.7078
50010210000035,重庆****寻网吧,107.404,29.7129
50010210000039,重庆****浓网吧,107.387,29.7115
50010210000040,重庆****轩网吧,107.61,29.7226
50010110000082,万州****风网吧,108.384,30.8183
50010110000083,万州****越网吧,106.464,29.4942
50010110000085,万州****达网吧,108.377,30.8481
50010110000086,万州****艺网吧,108.376,30.7519
50010110000087,万州****网城）,108.453,30.7639
50010110000088,万州****滩网吧,108.613,30.7412
50010110000089,万州****竹网吧,108.465,30.7823
50010110000090,万州****界网吧,108.016,30.859
50010110000092,万州****巢网吧,108.374,30.8208
50010110000093,万州****骋网吧,108.38,30.8207
50010110000094,万州****巢网吧,108.381,30.8221
50010110000095,万州****宇网吧,108.38,30.8742
50010110000096,万州****鸟网吧,108.387,30.8084
50010110000097,万州****升网吧,108.208,30.7955
50010110000098,万州****迹网吧,108.378,30.8502
50010110000100,万州****达网吧,108.273,30.8193
50010110000101,万州****瑞网吧,108.411,30.7761
50015110000062,重庆****腾网吧,106.481,29.5375
50010110000102,万州****鸟网吧,108.383,30.8172
50010110000104,万州****君网吧,108.706,30.941
50010110000106,万州****光网吧,108.37,30.8322
50010110000109,万州****程网吧,108.379,30.7873
50010110000110,万州****日网吧,108.822,30.6013
50010110000112,万州****C城）,108.447,30.7665
50010110000113,万州****光网吧,108.245,30.6412
50010210000070,重庆****林网吧,107.305,29.7417
50010210000072,重庆****宇网吧,107.305,29.7153
50010210000074,重庆****源网吧,107.397,29.7151
50010210000077,重庆****奔网吧,107.305,29.7419
50010310000019,渝中****琦网吧,106.576,29.5585
50015310000040,奔月****月网吧,106.487,29.6395
50024210000018,酉阳****络会所,108.775,28.8397
50015310000043,北部****特网吧,106.552,29.6272
50022710000081,（璧****号网咖,106.234,29.5992
50011210000210,渝北****义网吧,106.586,29.6574
50011210000209,渝北****拉网吧,106.501,29.5999
50024210000004,酉阳****荣网吧,109.137,28.9768
50011410000048,黔江****捌网吧,108.839,29.5404
50024310000013,彭水****络会所,108.273,29.3596
50011010000033,重庆****云网吧,106.942,28.9498
50011010000034,重庆****舟网吧,106.936,28.9586
50011010000035,重庆****八网吧,106.933,28.9614
50011010000039,重庆****伟网吧,106.892,28.9285
50011110000001,重庆****兰网吧,105.773,29.4884
50011110000004,重庆****网吧）,105.801,29.4966
50010110000114,万州****G城）,106.488,29.4785
50010110000115,万州****十度）,108.384,30.8198
50010110000116,万州****捷网吧,106.464,29.4942
50010110000117,万州****仙网吧,108.384,30.8057
50010110000118,万州****燕网吧,108.445,30.9055
50010110000119,万州****五网吧,108.444,30.9053
50010110000121,万州****缘网吧,108.399,30.7897
50010110000122,万州****D城),108.453,30.7639
50010110000124,万州****幻网吧,106.464,29.4942
50010110000126,万州****纪网吧,108.388,30.8147
50010110000127,万州****速网吧,108.38,30.8205
50010110000129,万州****元网吧,108.399,30.7897
50010110000130,万州****中网吧,108.399,30.7897
50010110000131,万州****B城),108.39,30.8028
50010110000132,万州****源网吧,108.38,30.82
50010110000133,万州****越网吧,108.385,30.8201
50010110000134,万州****欣网吧,108.399,30.7897
50010110000135,万州****龙网吧,108.384,30.8186
50010110000136,万州****成网吧,108.451,30.5729
50010110000138,万州****通网吧,108.647,30.6145
50010110000140,万州****河网吧,108.386,30.8136
50010110000141,万州****缘婉）,108.384,30.8122
50010110000143,万州****迅网吧,108.399,30.7897
50010110000146,万州****目网吧,108.392,30.8074
50010110000148,万州****地网吧,108.396,30.7815
50010110000149,万州****典网吧,108.371,30.8215
50010110000151,万州****晴网吧,108.45,30.7708
50010110000125,万州****人网吧,106.464,29.4942
50010110000155,万州****C城),108.399,30.7907
50010110000157,万州****缘网吧,108.386,30.8187
50023110000038,垫江****下网吧,107.346,30.3337
50023110000039,垫江****胜网吧,107.363,30.0847
50023110000043,垫江****士网吧,107.444,30.2595
50023110000044,垫江****雨网吧,107.359,30.3415
50023110000045,垫江****海网吧,107.357,30.336
50023110000047,垫江****阳网吧,107.398,30.4012
50023110000051,垫江****航网吧,107.352,30.3279
50023110000052,垫江****线网吧,107.356,30.3369
50011610000055,重庆****顿网吧,106.154,29.2102
50011610000056,重庆****谊网吧,106.573,29.2872
50022210000068,綦江****网吧）,106.772,28.9303
50022210000069,(加****A区),106.664,29.0239
50022210000070,綦江****网吧）,106.721,28.583
50023010000076,丰都****翔网吧,108.039,29.9165
50023010000077,丰都****飞网吧,108.162,29.8921
50023010000078,丰都****凌网吧,108.123,29.6367
50023010000079,丰都****乐部）,107.628,29.997
50023010000081,丰都****心网吧,107.651,29.9097
50023010000083,丰都****停业）,107.797,30.1724
50023110000002,垫江****鸟网吧,107.351,30.3327
50023110000003,垫江****空网吧,107.364,30.3439
50023110000008,垫江****空网城,107.361,30.3382
50023110000010,垫江****深网吧,107.356,30.3376
50023110000013,垫江****奇网吧,107.363,30.0847
50023110000015,垫江****际网吧,107.55,30.4224
50023110000016,垫江****阳网吧,107.362,30.3422
50023110000017,垫江****速网吧,107.36,30.339
50023110000018,垫江****仔网吧,107.437,30.0974
50023110000020,垫江****络会所,107.356,30.3376
50023110000021,垫江****神网吧,107.356,30.3376
50011610000027,重庆****游网吧,106.259,29.2879
50011610000028,重庆****会所）,106.282,29.4214
50011610000029,重庆****醉网吧,106.266,29.2934
50011610000030,重庆****乐网吧,106.544,29.5546
50011610000031,重庆****觉网吧,106.272,29.2866
50011610000032,重庆****会所）,106.26,29.2931
50011610000033,重庆****力网吧,106.261,29.2725
50011610000034,重庆****锋网吧,106.312,29.4072
50011610000035,重庆****笑网吧,106.259,29.293
50011610000036,重庆****网吧）,106.439,29.3531
50011610000038,重庆****晓网吧,106.171,29.0243
50011610000040,重庆****伟网吧,106.439,29.3531
50011610000041,重庆****红网吧,106.039,29.1071
50011610000042,重庆****文网吧,106.335,29.4155
50011610000043,重庆****虫网吧,105.943,28.9873
50011610000044,重庆****发网吧,105.943,28.9873
50011610000045,重庆****宾网吧,106.078,29.2604
50011610000046,重庆****A城）,106.246,29.274
50011610000047,重庆****B城),106.269,29.0354
50011610000048,重庆****林网吧,106.221,29.2604
50011610000049,重庆****事网吧,106.345,28.9118
50011610000050,重庆****城网吧,106.282,29.4214
50011610000051,重庆****龙网吧,106.46,29.1212
50011610000053,重庆****忠网吧,106.46,29.1212
50011610000054,重庆****晴网吧,106.312,29.4072
50022210000072,綦江****网吧）,106.765,28.8359
50022210000074,重庆****网吧）,106.67,29.0008
50022210000075,綦江****光网吧,106.67,29.0008
50022210000078,綦江****网吧）,106.748,29.0536
50022210000080,綦江****网吧）,106.672,29.0019
50022210000081,綦江****网吧),106.774,28.9295
50022210000082,綦江****网吧）,106.691,28.5446
50022210000084,綦江****网吧),106.701,28.5714
50022410000009,铜梁****会所),106.06,29.8492
50022410000011,铜梁****会所）,106.059,29.8407
50022410000012,铜梁****鑫网吧,106.17,29.8228
50022410000013,铜梁****会所）,106.069,29.8494
50022410000014,铜梁****会所）,106.145,29.8512
50022410000016,铜梁****会所）,106.145,29.8512
50022410000019,铜梁****网城）,106.069,29.8391
50010210000042,重庆****淼网吧,107.274,29.7566
50010210000043,重庆****方网吧,107.393,29.7129
50010210000045,重庆****凌网吧,107.059,29.6618
50010210000046,重庆****结网吧,107.406,29.706
50010210000047,重庆****舟网吧,107.113,29.4498
50010210000048,重庆****豪网吧,107.305,29.7435
50010210000050,重庆****沙网吧,107.402,29.7064
50010210000052,重庆****浪网吧,106.492,29.4763
50010210000054,重庆****风网吧,107.401,29.7058
50010210000055,重庆****合网吧,107.369,29.6586
50010210000058,重庆****月网吧,107.41,29.7021
50010210000060,重庆****轩网吧,107.114,29.449
50010210000063,重庆****皓网吧,107.386,29.7078
50010210000069,重庆****翰网吧,107.493,29.5532
50023010000053,丰都****捷网吧,107.628,29.997
50023010000054,丰都****叶网吧,107.688,29.768
50023010000055,丰都****首网吧,107.741,29.844
50023010000056,丰都****停业）,107.741,29.844
50023010000057,丰都****会所）,107.838,29.8906
50023010000058,丰都****龙网吧,107.739,29.8715
50023010000061,丰都****会所）,107.731,29.8727
50023010000062,丰都****会所）,107.736,29.872
50023010000065,丰都****乐网吧,107.728,29.8673
50023010000066,丰都****络世界,107.75,29.9893
50023010000068,丰都****城网吧,107.871,30.0239
50023010000069,丰都****休闲吧,107.66,30.1072
50023010000070,丰都****民网吧,107.995,29.843
50023010000072,丰都****鑫网吧,108.162,29.5906
50023010000073,丰都****泰网吧,107.706,29.8785
50011510000092,长寿****俊网吧,107.072,29.8131
50011510000093,长寿****强网吧,107.247,29.9119
50011510000094,长寿****殿网吧,107.247,29.9119
50011610000001,重庆****强网吧,105.898,29.36
50011610000002,重庆****叶网吧,106.264,29.2889
50011610000003,重庆****旺网吧,106.263,29.294
50011610000004,重庆****友网吧,106.265,29.2932
50011610000005,重庆****福网吧,106.259,29.293
50011610000006,重庆****叶网吧,106.263,29.289
50011610000007,重庆****网事),106.257,29.2929
50011610000008,重庆****津网吧,106.261,29.2725
50011610000009,重庆****嘉网吧,106.27,29.2864
50011610000010,重庆****城网吧,106.28,29.4188
50011610000011,重庆****河网吧,106.272,29.2865
50011610000012,重庆****旺网吧,106.327,29.412
50011610000013,重庆****奇网吧,106.039,29.1071
50011610000015,重庆****洪网吧,106.282,29.4214
50011610000016,重庆****轩网吧,106.269,29.0354
50011610000017,重庆****彤网吧,106.266,29.2934
50011610000018,重庆****香网吧,106.484,29.2815
50011610000019,重庆****浪网吧,106.277,29.2853
50011610000020,重庆****舰店),105.94,29.3529
50011610000021,重庆****幻网吧,106.26,29.2875
50011610000022,重庆****间网吧,106.261,29.2725
50011610000023,重庆****网吧),106.261,29.2725
50011610000025,重庆****畅网吧,106.265,29.2926
50022210000028,綦江****会所）,106.655,29.0464
50022210000031,綦江****网吧）,106.726,28.7485
50022210000032,（加****鑫网吧,106.524,29.5449
50022210000033,（加****情网吧,106.717,28.9532
50022210000036,綦江****网吧）,106.656,29.0459
50022210000048,綦江****网吧）,106.713,28.9493
50022210000049,綦江****网吧),106.658,29.0445
50022210000050,（加****知网吧,106.683,28.6137
50022210000052,綦江****网吧）,106.512,29.0017
50022210000054,綦江****网吧),106.662,29.0381
50022210000056,綦江****网吧）,106.658,29.044
50022210000059,綦江****网吧）,106.659,29.045
50022210000063,（加****网吧,106.683,28.6144
50022210000064,綦江****网吧）,106.691,28.5446
50022210000066,綦江****网吧）,106.675,28.9007
50022210000067,（加****腾网吧,106.662,29.0372
50011910000021,南川****友网吧,107.091,29.1611
50011910000022,南川****景网吧,107.178,29.1417
50011910000023,南川****网城）,107.102,29.1634
50011910000024,南川****网络）,107.113,29.1558
50011910000025,南川****会所),107.099,29.1571
50011910000026,南川****爱网吧,106.986,29.2602
50011910000027,南川****乐部）,107.116,29.1581
50023010000016,丰都****鑫网吧,107.706,29.8787
50023010000018,丰都****会所),108.778,28.8327
50023010000019,丰都****网吧）,107.736,29.872
50023010000020,丰都****停业),107.713,30.0647
50023010000021,丰都****天网吧,107.73,29.8677
50023010000022,丰都****网吧）,107.838,29.8906
50023010000023,丰都****禧网吧,107.871,30.0239
50023010000024,丰都****星网吧,107.738,29.8721
50023010000025,丰都****纪网吧,107.838,29.8906
50023010000027,丰都****浪网吧,107.745,29.877
50023010000028,丰都****扬网吧,107.73,29.8681
50023010000033,丰都****飞网吧,107.804,30.0504
50023010000034,丰都****人网吧,107.838,29.8906
50023010000035,丰都****锋网吧,107.739,29.8719
50023010000036,丰都****望网屋,107.871,30.0239
50023010000037,丰都****菲网吧,107.871,30.0224
50023010000038,丰都****海网吧,107.871,30.0264
50023010000039,丰都****友网吧,107.618,30.1338
50023010000041,丰都****网吧）,107.745,29.8757
50023010000042,丰都****网吧）,107.746,29.8758
50023010000043,丰都****居网吧,107.871,30.0239
50023010000044,丰都****叶网吧,107.738,29.8658
50024310000020,彭水****界网吧,108.321,29.4372
50024310000021,彭水****恋网吧,108.175,29.3019
50024310000022,彭水****尊网吧,108.171,29.2971
50024310000027,彭水****意网吧,108.286,29.1976
50024310000034,彭水****奇网吧,109.626,31.3984
50024310000040,彭水****秀网吧,107.859,29.7738
50024310000042,彭水****门网吧,108.296,29.1375
50024310000048,彭水****缘网吧,108.438,29.5361
50024310000049,彭水****代网吧,108.438,29.5361
50024310000050,彭水****洒网吧,106.538,29.5759
50024310000051,彭水****云网吧,108.176,29.3024
50024310000053,彭水****缘网吧,108.1,29.2892
50024310000054,彭水****园网吧,108.223,29.5352
50011510000078,长寿****虹网吧,107.079,29.8417
50011510000079,长寿****你网吧,107.079,29.842
50011510000080,长寿****朋网吧,107.185,30.0869
50011510000081,长寿****优网吧,107.089,29.867
50011510000082,长寿****网吧),107.362,30.0872
50011510000083,长寿****间网吧,107.096,29.8634
50011510000085,长寿****见网吧,107.088,29.8492
50011510000086,长寿****潮网吧,107.078,29.8404
50011510000087,长寿****逸网吧,106.56,29.5824
50011510000088,长寿****度网吧,107.147,29.9605
50011510000089,长寿****鑫网吧,107.01,29.8378
50011510000090,长寿****界网吧,107.076,29.8347
50011510000091,长寿****飞网吧,107.08,29.8346
50011910000028,南川****话网吧,107.116,29.1581
50011910000029,南川****缘网吧,106.995,29.0876
50011910000030,南川****界网吧,107.116,28.9349
50011910000031,南川****山网吧,106.933,29.1871
50011910000032,南川****代网吧,107.059,29.1149
50011910000033,南川****玩网吧,107.105,29.1624
50011910000099,内部****部测试,107.768,29.3313
50022210000002,綦江****网吧）,106.683,28.6137
50022210000003,重庆****网吧）,106.826,29.0847
50022210000004,(加****罗网吧,106.683,28.6137
50022210000005,綦江****网吧）,106.653,29.0308
50022210000006,綦江****网吧）,106.683,28.6137
50022210000007,綦江****网吧）,106.662,29.0372
50022210000008,(加****道网吧,106.658,29.0345
50022210000009,綦江****祥网吧,106.663,28.7679
50022210000012,(加****源网吧,106.528,28.9706
50022210000014,綦江****网吧),106.761,28.6602
50022210000017,綦江****网吧）,106.657,29.0334
50022210000022,（加****易网吧,106.666,28.7706
50022210000023,綦江****网吧）,106.654,29.0343
50022210000024,（加****诚网吧,106.713,28.9492
50022210000026,(加****怡网吧,106.512,29.0017
50023010000045,丰都****源网吧,107.825,29.9542
50023010000046,丰都****会所）,107.739,29.8719
50023010000048,丰都****限网吧,107.797,29.9259
50023010000050,丰都****鑫网吧,107.628,29.997
50023010000051,丰都****空间）,107.742,29.8741
50022210000086,（加****容网吧,106.826,29.0811
50022210000091,綦江****直营店,106.631,29.0373
50022210000092,（加****直营店,106.661,29.0322
50022210000093,綦江****B区）,106.664,29.0239
50022310000001,潼南****隆网吧,105.85,30.1954
50022310000002,潼南****新网吧,105.771,30.0344
50022310000003,潼南****潮网吧,105.841,30.182
50022310000004,潼南****俱乐部,105.845,30.1944
50022310000005,潼南****宇网吧,105.843,30.1744
50022310000006,潼南****兴网吧,105.771,30.0344
50022310000007,潼南****幻网吧,105.723,30.0972
50022310000008,潼南****浪网吧,105.813,30.0171
50023110000022,垫江****缘网吧,107.356,30.3369
50023110000023,垫江****乐网吧,107.418,30.2225
50023110000028,垫江****区网吧,107.36,30.3377
50023110000030,垫江****缘网吧,107.44,30.0985
50011610000057,重庆****乐网吧,106.309,29.2154
50011610000058,重庆****树网吧,106.259,29.2807
50011610000059,重庆****果网吧,106.244,29.2785
50011610000060,重庆****果网吧,106.269,29.0354
50011610000061,重庆****欣网吧,105.946,29.0662
50011610000062,重庆****通网吧,106.322,29.4056
50011610000063,重庆****泉网吧,106.396,29.2464
50011610000064,重庆****兴网吧,106.54,29.1549
50011610000065,重庆****桃网吧,106.212,29.2079
50011610000066,重庆****点网吧,106.123,29.0663
50011610000067,重庆****月网吧,106.322,29.4056
50011610000068,重庆****会所）,106.265,29.2926
50011610000069,重庆****腾网吧,106.123,29.0663
50011610000070,重庆****人网吧,106.123,29.0663
50011610000071,重庆****雾网吧,106.28,29.4243
50011610000072,重庆****乐网吧,106.274,29.081
50011610000074,重庆****畅网吧,106.261,29.2886
50011610000075,重庆****岔网吧,106.496,29.1204
50011610000077,重庆****山网吧,106.269,29.0354
50011610000078,重庆****惠网吧,106.273,29.085
50011610000079,重庆****秀网吧,106.129,29.0662
50011610000080,重庆****城网吧,106.123,29.0663
50011610000081,重庆****叶网吧,106.271,29.2856
50011610000082,重庆****红网吧,106.269,29.0354
50011610000083,重庆****地网吧,106.312,29.4072
50022310000010,潼南****悦网吧,105.843,30.1744
50022310000011,潼南****月网吧,105.725,30.0952
50022310000012,潼南****情网吧,105.843,30.1744
50022310000013,潼南****极网吧,105.798,29.9151
50022310000014,潼南****南网吧,105.838,30.1833
50022310000015,潼南****昌网吧,105.825,30.184
50022310000016,潼南****俱乐部,105.843,30.1744
50022310000017,潼南****络会所,105.843,30.1744
50022310000020,潼南****缘网吧,105.753,30.2221
50022310000021,潼南****络会所,105.818,30.1855
50022310000022,潼南****纪网吧,105.823,30.1833
50022310000023,潼南****络会所,105.845,30.1947
50022310000024,潼南****锋网吧,105.843,30.172
50022310000025,潼南****络会所,105.849,30.1975
50022310000026,潼南****络会所,105.825,30.184
50022310000027,潼南****络会所,105.842,30.1753
50022310000028,潼南****络会所,105.843,30.1744
50022310000029,潼南****极网吧,105.771,30.0344
50022310000030,潼南****星网吧,105.825,30.184
50022310000031,潼南****络会所,105.823,30.1833
50022310000032,潼南****梦网吧,105.919,30.2538
50022310000033,潼南****成网吧,105.82,30.1824
50022310000034,潼南****辉网吧,105.825,30.184
50022310000035,潼南****络会所,105.843,30.172
50022310000036,潼南****鸽网吧,105.898,29.9642
50022310000037,潼南****休闲吧,105.753,30.2223
50023110000054,垫江****鑫网吧,107.467,30.2976
50023110000056,垫江****络会所,107.359,30.3416
50023110000058,垫江****飞网吧,107.429,30.3081
50023210000001,武隆****宇网吧,107.617,29.3999
50023210000005,武隆****宁网吧,107.766,29.3307
50023210000006,武隆****鑫网吧,107.764,29.3299
50023210000007,武隆****怡网吧,107.074,29.8371
50023210000008,武隆****平网吧,108.08,30.5009
50023210000010,武隆****皇网城,107.768,29.3278
50023210000011,武隆****极网吧,107.756,29.3317
50023210000012,武隆****东网吧,107.768,29.3313
50023210000013,武隆****华网吧,107.766,29.331
50023210000014,武隆****光网吧,107.77,29.3329
50023210000015,武隆****纪网吧,107.385,29.4577
50023210000017,武隆****创网吧,107.886,29.2443
50023210000018,武隆****声网吧,108.931,28.4225
50023110000034,垫江****恒网吧,107.362,30.3422
50011710000040,重庆****凡网吧,106.278,29.979
50011710000044,重庆****利网吧,106.248,30.0053
50011710000045,重庆****都网吧,106.412,29.9789
50011710000046,重庆****典网吧,106.412,29.9789
50011710000047,重庆****络会所,106.328,30.1847
50011710000048,重庆****窝网吧,106.083,30.3374
50022810000007,梁平****元网吧,107.806,30.679
50022810000008,梁平****缘网吧,107.799,30.6746
