siteid,title,lng,lat,sum
50011310000099,巴南****狼网吧,106.617,29.3893,6831
50010910000062,重庆****恋网吧,106.429,29.8209,4248
50011310000118,巴南****光网吧,106.541,29.463,3642
50010610002009,重庆****斯网吧,106.31,29.6089,3387
50010710001088,九龙****乐部）,106.491,29.534,2977
50010610006004,重庆****来网吧,106.383,29.5897,2962
50010510000015,江北****喜网吧,106.561,29.5864,2944
50010510000095,重庆****会所）,106.668,29.6138,2924
50010810000123,南岸****竹网吧,106.61,29.539,2877
50015310000022,北部****舟网吧,106.494,29.6382,2849